     3.05           OBSERVATION DATA    MIXED               RINEX VERSION / TYPE
TPS2RIN 1.0.28.3459 TPS-USER            20240514 230103 UTC PGM / RUN BY / DATE
Win64 build Jun 01, 2022 (c) Topcon Positioning Systems     COMMENT
SRC: log20240502_010249.tps                                 COMMENT
Observer            Agency                                  OBSERVER / AGENCY
U0CGZX290K2         TPS GR5P            5.5.1+2302040000    REC # / TYPE / VERS
SN: GR-5 1118-20018                                         COMMENT
000                 TPSGR5          NONE                    ANT # / TYPE
        1.6760        0.0000        0.0000                  ANTENNA: DELTA H/E/N
DELTA H stands for **SLANT** height here!                   COMMENT
Base1                                                       MARKER NAME
  4451477.4519  2271046.0177  3950022.8913                  APPROX POSITION XYZ
  2024     5     2     8    27   25.0000000     GPS         TIME OF FIRST OBS
  2024     5     2     8    42   45.0000000     GPS         TIME OF LAST OBS
     5.000                                                  INTERVAL
   185 EPOCHS                                               COMMENT
G   12 C1C L1C D1C C1W L1W D1W C2W L2W D2W C2X L2X D2X      SYS / # / OBS TYPES
R   12 C1C L1C D1C C1P L1P D1P C2P L2P D2P C2C L2C D2C      SYS / # / OBS TYPES
    15                                                      # OF SATELLITES
   G05   185   185   185   185   185   185   185   185   185PRN / # OF OBS
         185   185   185                                    PRN / # OF OBS
   G12   185   185   185   185   185   185   185   185   185PRN / # OF OBS
         185   185   185                                    PRN / # OF OBS
   G18   185   185   185   185   185   185   185   185   185PRN / # OF OBS
         185   185   185                                    PRN / # OF OBS
   G20   185   185   185   185   185   185   185   185   185PRN / # OF OBS
           0     0     0                                    PRN / # OF OBS
   G25   185   185   185   185   185   185   185   185   185PRN / # OF OBS
         185   185   185                                    PRN / # OF OBS
   G28   185   185   185   185   185   185   185   185   185PRN / # OF OBS
         185   185   185                                    PRN / # OF OBS
   G29   185   185   185   185   185   185   185   185   185PRN / # OF OBS
         185   185   185                                    PRN / # OF OBS
   G31   185   185   185   185   185   185   185   185   185PRN / # OF OBS
         185   185   185                                    PRN / # OF OBS
   R09   185   185   185   185   185   185   185   185   185PRN / # OF OBS
         185   185   185                                    PRN / # OF OBS
   R10   185   185   185   185   185   185     0     0     0PRN / # OF OBS
           0     0     0                                    PRN / # OF OBS
   R11   116   116   116   115   115   115   115   115   115PRN / # OF OBS
         115   115   115                                    PRN / # OF OBS
   R16     5     5     5     4     4     4     2     2     2PRN / # OF OBS
           3     3     3                                    PRN / # OF OBS
   R19   185   185   185   185   185   185   185   185   185PRN / # OF OBS
         185   185   185                                    PRN / # OF OBS
   R20   185   185   185   185   185   185   185   185   185PRN / # OF OBS
         185   185   185                                    PRN / # OF OBS
   R21   185   185   185   185   185   185   185   185   185PRN / # OF OBS
         185   185   185                                    PRN / # OF OBS
G L1C                                                       SYS / PHASE SHIFT
G L1W -0.25000                                              SYS / PHASE SHIFT
G L2W  0.00000                                              SYS / PHASE SHIFT
G L2X  0.25000                                              SYS / PHASE SHIFT
R L1C                                                       SYS / PHASE SHIFT
R L1P -0.25000                                              SYS / PHASE SHIFT
R L2P -0.25000                                              SYS / PHASE SHIFT
R L2C                                                       SYS / PHASE SHIFT
  7 R09 -2 R10 -7 R11  0 R16 -1 R19  3 R20  2 R21  4        GLONASS SLOT / FRQ #
                                                            GLONASS COD/PHS/BIS
    18                  GPS                                 LEAP SECONDS
                                                            END OF HEADER
> 2024 05 02 08 27 25.0000000  0 13
G05  23201027.165   121922221.493 7      9394.643    23201024.728   121922221.489 6      9394.643    23201035.878    95004366.972 6      7320.501    23201036.480    95004373.987 7      7320.501
R19  21490222.999   114958190.203 7      3922.341    21490222.707   114958190.212 7      3922.341    21490234.191    89411965.774 7      3050.710    21490234.820    89411965.784 7      3050.710
G25  20241818.610   106371465.115 8      6050.311    20241817.873   106371465.112 8      6050.311    20241826.864    82886853.390 8      4714.528    20241828.200    82886892.390 8      4714.528
R20  19284267.878   103121645.632 7      7986.543    19284267.686   103121645.641 7      7986.543    19284279.135    80205767.988 7      6211.756    19284280.000    80205770.986 7      6211.756
G29  20608749.612   108299701.626 8      7488.200    20608747.838   108299701.625 8      7488.200    20608753.203    84389376.711 8      5834.961    20608755.760    84389400.712 8      5834.961
R09  19588706.400   104602590.035 8      5420.866    19588706.552   104602590.020 8      5420.866    19588716.113    81357606.264 8      4216.229    19588715.940    81357606.261 8      4216.229
R10  19472334.243   103798490.140 8      8889.007    19472334.057   103798490.121 7      8889.007
G28  21699093.424   114029496.876 8      7383.133    21699093.422   114029496.875 6      7383.133    21699099.995    88854154.461 6      5753.091    21699100.440    88854180.461 8      5753.091
G12  22234814.340   116844724.213 8      4721.938    22234814.297   116844724.210 7      4721.938    22234819.848    91047833.290 7      3679.433    22234822.460    91047868.295 7      3679.433
G18  22745240.626   119527044.974 7     10534.193    22745240.407   119527044.971 6     10534.193    22745249.218    93137960.649 6      8208.462    22745249.760    93137994.649 8      8208.462
G31  22956963.576   120639650.993 7      9103.188    22956963.101   120639650.989 6      9103.188    22956970.272    94004923.558 6      7093.393    22956971.200    94004950.572 7      7093.393
G20  23149185.540   121649785.012 7      7333.555    23149184.737   121649785.020 5      7333.555    23149192.731    94792072.171 5      5714.458
R21  22719617.237   121577272.560 7     11008.927    22719618.041   121577272.557 7     11008.927    22719631.910    94560155.685 7      8562.499    22719630.740    94560159.687 7      8562.499
> 2024 05 02 08 27 30.0000000  0 13
G05  23192088.517   121875250.027 7      9393.926    23192085.920   121875250.017 7      9393.926    23192097.574    94967765.834 7      7319.942    23192097.860    94967772.848 7      7319.942
R19  21486556.735   114938578.331 7      3922.484    21486556.808   114938578.333 6      3922.484    21486567.824    89396712.064 7      3050.821    21486568.380    89396712.073 7      3050.821
G25  20236062.482   106341215.623 8      6049.429    20236061.601   106341215.619 8      6049.429    20236070.636    82863282.337 8      4713.841    20236071.760    82863321.338 8      4713.841
R20  19276801.574   103081718.767 6      7984.191    19276800.915   103081718.771 6      7984.191    19276812.695    80174713.754 7      6209.926    19276813.560    80174716.750 7      6209.926
G29  20601624.954   108262261.002 8      7488.032    20601623.148   108262260.998 8      7488.032    20601628.544    84360202.192 8      5834.830    20601630.900    84360226.195 8      5834.830
R09  19583631.702   104575491.232 8      5418.681    19583631.819   104575491.213 8      5418.681    19583641.446    81336529.396 8      4214.530    19583641.180    81336529.394 8      4214.530
R10  19463997.384   103754049.941 8      8887.047    19463997.254   103754049.925 8      8887.047
G28  21692069.591   113992586.059 7      7381.246    21692069.403   113992586.055 6      7381.246    21692076.057    88825392.775 6      5751.620    21692076.380    88825418.779 8      5751.620
G12  22230321.941   116821114.924 8      4721.718    22230321.511   116821114.923 7      4721.718    22230326.976    91029436.429 7      3679.261    22230329.840    91029471.437 7      3679.261
G18  22735217.865   119474373.905 7     10534.238    22735217.603   119474373.902 6     10534.238    22735226.233    93096918.265 6      8208.497    22735226.960    93096952.262 8      8208.497
G31  22948302.907   120594138.621 8      9101.746    22948302.705   120594138.614 6      9101.746    22948309.175    93969459.378 6      7092.270    22948310.620    93969486.389 7      7092.270
G20  23142208.675   121613121.328 7      7332.008    23142207.006   121613121.327 4      7332.008    23142216.339    94763503.066 4      5713.253
R21  22709330.746   121522228.434 7     11008.600    22709330.697   121522228.434 7     11008.600    22709345.564    94517343.594 8      8562.245    22709344.520    94517347.594 7      8562.245
> 2024 05 02 08 27 35.0000000  0 13
G05  23183151.112   121828281.045 7      9393.448    23183147.762   121828281.042 7      9393.448    23183160.351    94931166.662 7      7319.570    23183160.820    94931173.676 7      7319.570
R19  21482889.790   114918964.300 7      3922.975    21482890.165   114918964.310 7      3922.975    21482901.280    89381456.689 7      3051.203    21482901.820    89381456.695 7      3051.203
G25  20230306.839   106310969.763 8      6048.842    20230306.060   106310969.758 8      6048.842    20230314.970    82839714.125 8      4713.384    20230316.320    82839753.129 8      4713.384
R20  19269336.993   103041801.736 7      7982.405    19269336.489   103041801.741 6      7982.405    19269347.878    80143667.169 7      6208.537    19269348.680    80143670.164 7      6208.537
G29  20594500.335   108224820.275 8      7488.234    20594498.352   108224820.272 8      7488.234    20594503.865    84331027.588 8      5834.987    20594506.100    84331051.590 8      5834.987
R09  19578558.814   104548402.112 8      5416.885    19578558.813   104548402.095 8      5416.885    19578568.670    81315460.064 8      4213.133    19578568.540    81315460.066 8      4213.133
R10  19455662.039   103709618.688 8      8885.386    19455662.176   103709618.666 8      8885.386
G28  21685047.112   113955683.806 8      7379.710    21685047.265   113955683.805 6      7379.710    21685053.847    88796637.755 6      5750.424    21685054.220    88796663.759 8      5750.424
G12  22225829.172   116797505.420 8      4721.853    22225828.549   116797505.417 7      4721.853    22225834.269    91011039.393 7      3679.366    22225837.220    91011074.399 7      3679.366
G18  22725194.534   119421702.217 7     10534.466    22725194.610   119421702.213 6     10534.466    22725202.990    93055875.404 6      8208.675    22725203.620    93055909.406 8      8208.675
G31  22939643.374   120548632.190 7      9100.672    22939642.954   120548632.189 6      9100.672    22939649.532    93933999.828 6      7091.433    22939651.020    93934026.843 7      7091.433
G20  23135233.026   121576464.403 7      7330.772    23135231.264   121576464.415 4      7330.772    23135240.921    94734939.226 5      5712.290
R21  22699044.703   121467184.496 7     11008.756    22699043.474   121467184.499 7     11008.756    22699058.980    94474531.649 7      8562.365    22699058.380    94474535.644 7      8562.365
> 2024 05 02 08 27 40.0000000  0 13
G05  23174213.211   121781314.565 7      9393.003    23174210.330   121781314.558 6      9393.003    23174222.947    94894569.428 7      7319.223    23174224.220    94894576.441 7      7319.223
R19  21479222.857   114899347.944 7      3923.549    21479223.085   114899347.951 6      3923.549    21479234.192    89366199.484 7      3051.649    21479234.440    89366199.487 7      3051.649
G25  20224551.951   106280727.557 8      6048.071    20224551.219   106280727.552 8      6048.071    20224560.036    82816148.760 8      4712.782    20224561.100    82816187.767 8      4712.782
R20  19261874.143   103001894.563 7      7980.429    19261873.500   103001894.563 7      7980.429    19261884.909    80112628.250 7      6207.000    19261886.040    80112631.254 7      6207.000
G29  20587375.510   108187379.496 8      7488.196    20587373.568   108187379.499 8      7488.196    20587378.844    84301852.955 8      5834.958    20587381.300    84301876.956 8      5834.958
R09  19573487.719   104521322.531 8      5414.976    19573487.601   104521322.514 8      5414.976    19573497.646    81294398.149 8      4211.648    19573497.540    81294398.151 8      4211.648
R10  19447328.237   103665196.378 8      8883.561    19447328.400   103665196.356 7      8883.561
G28  21678026.666   113918790.166 7      7377.866    21678026.415   113918790.166 6      7377.866    21678032.812    88767889.467 6      5748.987    21678033.580    88767915.467 8      5748.987
G12  22221336.190   116773895.852 8      4721.886    22221335.921   116773895.847 7      4721.886    22221341.605    90992642.287 7      3679.391    22221344.640    90992677.294 7      3679.391
G18  22715171.097   119369029.929 7     10534.536    22715171.198   119369029.922 6     10534.536    22715180.216    93014832.078 6      8208.729    22715180.740    93014866.086 8      8208.729
G31  22930984.840   120503131.762 7      9099.485    22930984.154   120503131.758 6      9099.485    22930991.260    93898544.947 6      7090.508    22930992.260    93898571.962 7      7090.508
G20  23128258.855   121539814.252 7      7329.298    23128256.880   121539814.247 4      7329.298    23128266.824    94706380.658 5      5711.141
R21  22688758.445   121412140.649 7     11008.753    22688757.607   121412140.668 7     11008.753    22688772.419    94431719.796 7      8562.363    22688771.940    94431723.794 7      8562.363
> 2024 05 02 08 27 45.0000000  0 13
G05  23165276.332   121734350.860 7      9392.470    23165273.564   121734350.862 7      9392.470    23165286.173    94857974.348 7      7318.808    23165287.120    94857981.354 7      7318.808
R19  21475555.806   114879729.443 7      3923.871    21475555.798   114879729.456 6      3923.871    21475566.856    89350940.633 7      3051.900    21475567.260    89350940.633 7      3051.900
G25  20218797.676   106250489.242 8      6047.237    20218797.161   106250489.237 8      6047.237    20218805.974    82792586.426 8      4712.133    20218807.000    82792625.433 8      4712.133
R20  19254413.408   102961997.486 7      7978.378    19254412.595   102961997.486 7      7978.378    19254424.309    80081597.192 7      6205.405    19254425.000    80081600.192 7      6205.405
G29  20580250.929   108149938.938 8      7487.953    20580249.005   108149938.935 8      7487.953    20580254.145    84272678.481 8      5834.768    20580256.540    84272702.480 8      5834.768
R09  19568418.469   104494252.870 8      5412.875    19568418.178   104494252.856 8      5412.875    19568428.269    81273343.972 8      4210.014    19568428.060    81273343.972 8      4210.014
R10  19438996.681   103620783.142 8      8881.672    19438996.513   103620783.121 7      8881.672
G28  21671007.557   113881905.380 7      7376.034    21671007.263   113881905.378 6      7376.034    21671013.976    88739148.063 6      5747.559    21671014.560    88739174.063 8      5747.559
G12  22216843.584   116750286.282 8      4721.792    22216843.101   116750286.281 7      4721.792    22216848.784    90974245.219 7      3679.318    22216851.240    90974280.220 7      3679.318
G18  22705148.114   119316357.311 7     10534.569    22705148.085   119316357.310 6     10534.569    22705155.962    92973788.488 6      8208.755    22705157.100    92973822.492 8      8208.755
G31  22922327.338   120457637.607 7      9098.181    22922327.000   120457637.606 6      9098.181    22922333.838    93863094.960 6      7089.491    22922335.480    93863121.962 7      7089.491
G20  23121286.254   121503171.164 7      7327.793    23121284.666   121503171.161 4      7327.793    23121293.507    94677827.591 4      5709.969
R21  22678472.024   121357097.268 7     11008.545    22678472.534   121357097.288 7     11008.545    22678485.943    94388908.281 7      8562.201    22678485.320    94388912.273 7      8562.201
> 2024 05 02 08 27 50.0000000  0 13
G05  23156340.268   121687390.558 7      9391.725    23156337.396   121687390.561 7      9391.725    23156349.693    94821381.933 7      7318.227    23156350.720    94821388.933 7      7318.227
R19  21471887.806   114860109.439 7      3924.051    21471888.548   114860109.445 7      3924.051    21471899.163    89335680.597 7      3052.040    21471899.340    89335680.596 7      3052.040
G25  20213044.707   106220255.402 8      6046.210    20213043.846   106220255.397 8      6046.210    20213052.558    82769027.579 8      4711.333    20213053.740    82769066.584 8      4711.333
R20  19246954.387   102922111.153 7      7976.105    19246953.353   102922111.165 6      7976.105    19246965.268    80050574.494 7      6203.637    19246965.840    80050577.499 7      6203.637
G29  20573126.071   108112499.034 8      7487.819    20573124.359   108112499.036 8      7487.819    20573129.574    84243504.526 8      5834.664    20573132.000    84243528.526 8      5834.664
R09  19563351.193   104467193.527 8      5410.796    19563350.713   104467193.510 8      5410.796    19563360.765    81252297.788 8      4208.397    19563360.620    81252297.785 8      4208.397
R10  19430666.767   103576379.674 8      8879.581    19430666.381   103576379.659 8      8879.581
G28  21663990.541   113845029.954 7      7374.084    21663990.273   113845029.956 6      7374.084    21663997.061    88710413.960 6      5746.040    21663997.260    88710439.964 8      5746.040
G12  22212350.861   116726677.303 8      4721.661    22212350.282   116726677.296 7      4721.661    22212356.471    90955848.576 7      3679.216    22212358.940    90955883.573 7      3679.216
G18  22695124.761   119263684.935 7     10534.307    22695124.761   119263684.931 6     10534.307    22695133.537    92932745.088 6      8208.551    22695134.020    92932779.098 8      8208.551
G31  22913671.735   120412150.302 8      9096.677    22913671.683   120412150.297 6      9096.677    22913677.668    93827650.294 6      7088.320    22913678.800    93827677.296 7      7088.320
G20  23114314.677   121466535.651 7      7326.258    23114313.298   121466535.640 5      7326.258    23114321.214    94649280.461 5      5708.773
R21  22668186.322   121302054.783 7     11008.333    22668187.606   121302054.815 8     11008.333    22668199.709    94346097.490 7      8562.037    22668199.340    94346101.487 7      8562.037
> 2024 05 02 08 27 55.0000000  0 13
G05  23147404.392   121640433.317 7      9391.059    23147402.176   121640433.320 7      9391.059    23147413.759    94784791.915 7      7317.708    23147414.260    94784798.909 7      7317.708
R19  21468219.739   114840487.672 7      3924.582    21468220.287   114840487.681 6      3924.582    21468230.828    89320419.198 7      3052.453    21468231.580    89320419.196 7      3052.453
G25  20207291.978   106190025.671 8      6045.556    20207291.236   106190025.669 8      6045.556    20207300.105    82745471.934 8      4710.823    20207301.240    82745510.938 8      4710.823
R20  19239496.759   102882235.269 7      7974.250    19239496.925   102882235.264 6      7974.250    19239508.268    80019559.901 7      6202.195    19239508.960    80019562.905 7      6202.195
G29  20566001.734   108075059.547 8      7487.903    20565999.954   108075059.550 8      7487.903    20566005.071    84214330.894 8      5834.729    20566007.500    84214354.896 8      5834.729
R09  19558285.658   104440144.205 8      5408.870    19558285.464   104440144.190 8      5408.870    19558295.422    81231259.411 8      4206.899    19558295.000    81231259.407 8      4206.899
R10  19422338.723   103531985.851 8      8877.815    19422338.441   103531985.828 7      8877.815
G28  21656975.218   113808163.631 7      7372.308    21656974.877   113808163.629 6      7372.308    21656981.352    88681686.947 6      5744.656    21656981.700    88681712.947 8      5744.656
G12  22207858.225   116703068.642 8      4721.630    22207857.779   116703068.635 7      4721.630    22207863.817    90937452.184 7      3679.192    22207866.420    90937487.180 7      3679.192
G18  22685101.719   119211012.440 7     10534.551    22685101.718   119211012.434 6     10534.551    22685110.096    92891701.593 6      8208.741    22685110.800    92891735.605 8      8208.741
G31  22905017.239   120366669.474 8      9095.510    22905016.556   120366669.473 6      9095.510    22905022.679    93792210.689 6      7087.410    22905023.960    93792237.689 7      7087.410
G20  23107344.283   121429907.451 7      7324.788    23107343.044   121429907.456 5      7324.788    23107351.834    94620738.974 5      5707.627
R21  22657900.652   121247012.942 7     11008.423    22657902.798   121247012.976 8     11008.423    22657913.997    94303287.179 7      8562.107    22657913.440    94303291.183 7      8562.107
> 2024 05 02 08 28  0.0000000  0 13
G05  23138469.424   121593479.362 7      9390.550    23138467.091   121593479.361 7      9390.550    23138478.528    94748204.423 7      7317.312    23138478.960    94748211.424 7      7317.312
R19  21464551.978   114820864.293 7      3924.960    21464551.965   114820864.296 6      3924.960    21464562.676    89305156.546 7      3052.746    21464563.180    89305156.545 7      3052.746
G25  20201540.428   106159800.327 8      6044.623    20201539.559   106159800.319 8      6044.623    20201548.439    82721919.698 8      4710.096    20201549.720    82721958.702 8      4710.096
R20  19232041.869   102842369.973 7      7972.021    19232041.719   102842369.981 7      7972.021    19232053.413    79988553.559 7      6200.461    19232053.940    79988556.563 7      6200.461
G29  20558877.543   108037620.734 8      7487.743    20558875.398   108037620.731 8      7487.743    20558880.818    84185157.779 8      5834.605    20558883.240    84185181.779 8      5834.605
R09  19553222.114   104413105.261 9      5406.803    19553221.992   104413105.246 8      5406.803    19553232.032    81210229.112 8      4205.291    19553231.780    81210229.107 8      4205.291
R10  19414012.584   103487601.847 8      8875.866    19414012.259   103487601.830 8      8875.866
G28  21649961.688   113771306.591 7      7370.576    21649961.665   113771306.592 6      7370.576    21649967.701    88652967.171 6      5743.306    21649968.300    88652993.173 8      5743.306
G12  22203365.966   116679460.448 7      4721.565    22203365.362   116679460.443 7      4721.565    22203371.367    90919056.167 7      3679.142    22203373.800    90919091.162 7      3679.142
G18  22675078.586   119158340.149 7     10534.416    22675078.376   119158340.148 6     10534.416    22675086.619    92850658.258 6      8208.636    22675087.560    92850692.265 8      8208.636
G31  22896363.442   120321195.362 7      9094.184    22896362.968   120321195.360 6      9094.184    22896369.369    93756776.321 6      7086.377    22896370.060    93756803.325 7      7086.377
G20  23100375.632   121393286.747 7      7323.348    23100374.585   121393286.754 5      7323.348    23100383.776    94592203.337 4      5706.505
R21  22647614.788   121191972.088 7     11008.036    22647617.504   121191972.111 8     11008.036    22647627.783    94260477.634 7      8561.806    22647627.800    94260481.639 7      8561.806
> 2024 05 02 08 28  5.0000000  0 13
G05  23129535.235   121546528.917 7      9389.809    23129532.682   121546528.914 7      9389.809    23129543.714    94711619.684 7      7316.734    23129544.860    94711626.691 7      7316.734
R19  21460883.521   114801239.331 7      3925.384    21460883.561   114801239.354 6      3925.384    21460894.062    89289892.674 7      3053.076    21460894.700    89289892.678 7      3053.076
G25  20195789.367   106129579.496 8      6043.751    20195788.769   106129579.495 8      6043.751    20195797.593    82698370.996 8      4709.417    20195798.940    82698410.000 8      4709.417
R20  19224589.108   102802515.369 7      7969.989    19224588.674   102802515.371 7      7969.989    19224600.363    79957555.532 7      6198.880    19224601.060    79957558.533 7      6198.880
G29  20551753.147   108000182.711 8      7487.617    20551751.140   108000182.709 8      7487.617    20551756.587    84155985.288 8      5834.507    20551758.740    84156009.287 8      5834.507
R09  19548160.529   104386076.814 8      5404.754    19548160.643   104386076.796 8      5404.754    19548170.497    81189206.972 8      4203.698    19548170.420    81189206.965 8      4203.698
R10  19405688.129   103443227.731 8      8874.029    19405687.839   103443227.710 8      8874.029
G28  21642949.596   113734459.067 7      7368.626    21642949.439   113734459.069 6      7368.626    21642956.027    88624254.800 6      5741.786    21642956.240    88624280.803 8      5741.786
G12  22198873.636   116655852.943 7      4721.574    22198873.085   116655852.940 7      4721.574    22198879.060    90900660.691 7      3679.148    22198881.580    90900695.680 7      3679.148
G18  22665055.334   119105668.166 7     10534.495    22665055.182   119105668.166 6     10534.495    22665063.789    92809615.165 6      8208.698    22665064.400    92809649.172 8      8208.698
G31  22887711.493   120275728.208 7      9092.874    22887710.846   120275728.212 6      9092.874    22887717.831    93721347.363 6      7085.356    22887717.880    93721374.369 7      7085.356
G20  23093408.260   121356673.700 7      7322.027    23093407.066   121356673.710 4      7322.027    23093416.181    94563673.694 4      5705.475
R21  22637329.268   121136932.322 8     11008.000    22637332.038   121136932.332 8     11008.000    22637342.789    94217668.934 7      8561.778    22637342.140    94217672.942 7      8561.778
> 2024 05 02 08 28 10.0000000  0 13
G05  23120601.375   121499582.204 7      9389.026    23120598.842   121499582.196 7      9389.026    23120610.040    94675037.853 7      7316.124    23120610.880    94675044.867 7      7316.124
R19  21457214.552   114781613.190 6      3925.328    21457214.618   114781613.199 6      3925.328    21457225.409    89274627.881 7      3053.033    21457225.820    89274627.881 7      3053.033
G25  20190039.436   106099363.481 8      6042.767    20190038.840   106099363.476 8      6042.767    20190047.837    82674826.043 8      4708.650    20190049.020    82674865.049 8      4708.650
R20  19217138.223   102762671.749 7      7967.622    19217137.806   102762671.758 7      7967.622    19217149.193    79926566.050 7      6197.040    19217150.260    79926569.051 7      6197.040
G29  20544629.129   107962745.747 8      7487.309    20544627.165   107962745.748 8      7487.309    20544632.677    84126813.628 8      5834.266    20544634.900    84126837.631 8      5834.266
R09  19543100.968   104359059.109 8      5402.466    19543101.033   104359059.094 8      5402.466    19543110.845    81168193.194 8      4201.918    19543111.020    81168193.191 8      4201.918
R10  19397365.687   103398863.656 8      8871.731    19397365.494   103398863.641 8      8871.731
G28  21635939.599   113697621.249 7      7366.575    21635939.285   113697621.246 6      7366.575    21635945.803    88595550.010 6      5740.188    21635946.400    88595576.013 8      5740.188
G12  22194381.403   116632246.393 7      4721.269    22194380.740   116632246.388 7      4721.269    22194386.858    90882265.941 7      3678.911    22194389.640    90882300.938 7      3678.911
G18  22655032.327   119052996.810 7     10534.194    22655032.405   119052996.803 6     10534.194    22655040.409    92768572.577 6      8208.463    22655041.660    92768606.584 8      8208.463
G31  22879060.763   120230268.211 7      9091.313    22879059.809   120230268.209 6      9091.313    22879066.605    93685923.985 6      7084.140    22879067.320    93685950.994 7      7084.140
G20  23086443.040   121320068.625 7      7320.261    23086441.018   121320068.636 5      7320.261    23086449.707    94535150.272 4      5704.099
R21  22627044.236   121081893.967 8     11007.544    22627046.026   121081893.976 8     11007.544    22627057.924    94174861.343 7      8561.423    22627057.360    94174865.348 7      8561.423
> 2024 05 02 08 28 15.0000000  0 13
G05  23111668.072   121452638.530 7      9388.397    23111665.177   121452638.526 7      9388.397    23111677.063    94638458.405 7      7315.634    23111678.040    94638465.419 7      7315.634
R19  21453544.902   114761985.218 7      3925.762    21453544.633   114761985.219 6      3925.762    21453556.322    89259361.644 7      3053.370    21453556.540    89259361.642 7      3053.370
G25  20184290.410   106069151.557 8      6041.964    20184289.805   106069151.554 8      6041.964    20184298.568    82651284.261 8      4708.024    20184299.780    82651323.270 8      4708.024
R20  19209689.828   102722838.456 7      7965.624    19209688.846   102722838.466 7      7965.624    19209700.157    79895584.605 7      6195.486    19209701.160    79895587.603 7      6195.486
G29  20537505.209   107925309.141 8      7487.294    20537503.305   107925309.141 8      7487.294    20537508.835    84097642.242 8      5834.255    20537511.240    84097666.240 8      5834.255
R09  19538043.445   104332051.416 8      5400.485    19538043.275   104332051.400 8      5400.485    19538053.230    81147187.185 8      4200.377    19538053.160    81147187.185 8      4200.377
R10  19389045.054   103354509.124 8      8869.907    19389044.430   103354509.105 8      8869.907
G28  21628931.245   113660792.463 8      7364.877    21628931.161   113660792.463 6      7364.877    21628937.645    88566852.241 6      5738.865    21628938.220    88566878.245 8      5738.865
G12  22189889.325   116608640.018 7      4721.314    22189888.956   116608640.017 7      4721.314    22189894.682    90863871.346 7      3678.946    22189896.880    90863906.345 7      3678.946
G18  22645009.039   119000325.362 7     10534.274    22645009.305   119000325.355 6     10534.274    22645017.667    92727529.884 6      8208.526    22645018.600    92727563.899 8      8208.526
G31  22870411.033   120184814.668 7      9090.130    22870411.270   120184814.664 6      9090.130    22870417.191    93650505.632 6      7083.218    22870417.880    93650532.649 7      7083.218
G20  23079478.158   121283470.742 7      7318.887    23079477.393   121283470.746 5      7318.887    23079485.525    94506632.432 5      5703.029
R21  22616758.945   121026856.201 7     11007.592    22616758.876   121026856.201 8     11007.592    22616772.949    94132054.198 7      8561.461    22616772.420    94132058.206 7      8561.461
> 2024 05 02 08 28 20.0000000  0 13
G05  23102735.773   121405698.273 7      9387.507    23102732.584   121405698.266 7      9387.507    23102744.689    94601881.602 7      7314.940    23102745.580    94601888.615 7      7314.940
R19  21449875.539   114742355.592 6      3926.060    21449875.588   114742355.589 6      3926.060    21449886.526    89244094.117 7      3053.602    21449886.940    89244094.116 7      3053.602
G25  20178541.951   106038944.001 8      6040.940    20178541.505   106038943.999 8      6040.940    20178550.407    82627745.902 8      4707.226    20178551.540    82627784.910 8      4707.226
R20  19202242.260   102683015.756 7      7963.382    19202241.878   102683015.765 7      7963.382    19202253.188    79864611.392 7      6193.742    19202253.980    79864614.391 7      6193.742
G29  20530381.361   107887873.203 8      7486.986    20530379.447   107887873.202 8      7486.986    20530384.905    84068471.368 8      5834.015    20530387.240    84068495.368 8      5834.015
R09  19532987.875   104305054.007 8      5398.310    19532987.802   104305053.989 8      5398.310    19532997.574    81126189.188 8      4198.686    19532997.200    81126189.188 8      4198.686
R10  19380725.777   103310164.372 8      8867.801    19380725.366   103310164.351 8      8867.801
G28  21621924.846   113623973.022 8      7362.814    21621924.742   113623973.025 6      7362.814    21621931.407    88538161.756 6      5737.258    21621931.700    88538187.760 8      5737.258
G12  22185397.226   116585034.193 7      4720.966    22185396.682   116585034.191 7      4720.966    22185402.682    90845477.168 7      3678.675    22185404.940    90845512.167 7      3678.675
G18  22634986.269   118947654.124 7     10534.181    22634985.927   118947654.121 6     10534.181    22634994.410    92686487.381 6      8208.452    22634995.440    92686521.389 8      8208.452
G31  22861762.950   120139367.953 7      9088.518    22861762.070   120139367.954 5      9088.518    22861768.612    93615092.616 6      7081.962    22861770.560    93615119.626 7      7081.962
G20  23072515.350   121246880.419 7      7317.248    23072514.421   121246880.428 5      7317.248    23072523.144    94478120.490 5      5701.752
R21  22606473.750   120971819.454 7     11007.108    22606472.031   120971819.453 7     11007.108    22606487.986    94089247.842 7      8561.084    22606487.800    94089251.852 7      8561.084
> 2024 05 02 08 28 25.0000000  0 13
G05  23093804.070   121358762.263 7      9386.668    23093800.549   121358762.257 7      9386.668    23093813.287    94565308.105 7      7314.287    23093813.940    94565315.114 7      7314.287
R19  21446206.151   114722725.097 6      3926.133    21446205.150   114722725.094 6      3926.133    21446216.973    89228825.921 7      3053.659    21446217.100    89228825.925 7      3053.659
G25  20172794.796   106008741.695 8      6039.938    20172794.085   106008741.693 8      6039.938    20172803.150    82604211.622 8      4706.445    20172804.260    82604250.630 8      4706.445
R20  19194797.021   102643204.559 7      7961.029    19194796.868   102643204.572 7      7961.029    19194808.477    79833647.126 7      6191.912    19194809.020    79833650.129 7      6191.912
G29  20523257.821   107850438.755 8      7486.750    20523255.817   107850438.752 8      7486.750    20523261.488    84039301.660 8      5833.831    20523263.880    84039325.662 8      5833.831
R09  19527934.129   104278067.729 8      5396.043    19527934.075   104278067.719 8      5396.043    19527943.786    81105199.846 8      4196.923    19527943.300    81105199.843 8      4196.923
R10  19372409.116   103265830.189 8      8865.770    19372408.627   103265830.173 8      8865.770
G28  21614920.624   113587163.748 8      7360.869    21614919.958   113587163.748 6      7360.869    21614926.731    88509479.187 6      5735.742    21614927.260    88509505.184 8      5735.742
G12  22180905.288   116561429.695 7      4720.818    22180904.904   116561429.691 7      4720.818    22180910.805    90827084.044 7      3678.560    22180913.420    90827119.044 7      3678.560
G18  22624963.276   118894984.013 7     10533.846    22624963.381   118894984.010 6     10533.846    22624971.417    92645445.742 6      8208.191    22624972.700    92645479.750 8      8208.191
G31  22853116.191   120093928.923 8      9086.974    22853115.704   120093928.919 6      9086.974    22853121.885    93579685.564 6      7080.759    22853123.000    93579712.579 7      7080.759
G20  23065554.182   121210298.525 7      7315.473    23065552.652   121210298.522 5      7315.473    23065562.547    94449615.109 5      5700.369
R21  22596189.425   120916784.545 7     11006.740    22596187.489   120916784.557 7     11006.740    22596203.579    94046442.923 7      8560.798    22596203.180    94046446.930 7      8560.798
> 2024 05 02 08 28 30.0000000  0 14
R16  23815849.331   127219992.685 6      3277.243
G05  23084873.177   121311829.496 7      9386.146    23084869.642   121311829.496 7      9386.146    23084882.336    94528737.142 7      7313.880    23084882.800    94528744.150 7      7313.880
R19  21442535.791   114703092.749 6      3926.541    21442535.078   114703092.763 6      3926.541    21442546.687    89213556.314 7      3053.976    21442546.980    89213556.321 7      3053.976
G25  20167048.484   105978543.600 8      6039.063    20167047.821   105978543.600 8      6039.063    20167056.688    82580680.628 8      4705.763    20167057.820    82580719.636 8      4705.763
R20  19187354.303   102603403.776 7      7958.978    19187354.016   102603403.773 7      7958.978    19187365.615    79802690.947 7      6190.317    19187366.240    79802693.944 7      6190.317
G29  20516134.407   107813004.780 8      7486.572    20516132.412   107813004.776 8      7486.572    20516137.998    84010132.328 8      5833.692    20516140.440    84010156.329 8      5833.692
R09  19522882.428   104251091.601 8      5394.134    19522882.121   104251091.585 8      5394.134    19522891.750    81084218.396 8      4195.438    19522891.660    81084218.390 8      4195.438
R10  19364093.755   103221505.810 8      8863.761    19364093.500   103221505.787 8      8863.761
G28  21607917.558   113550363.629 7      7358.988    21607917.191   113550363.629 6      7358.988    21607924.275    88480803.754 6      5734.277    21607924.220    88480829.751 8      5734.277
G12  22176413.773   116537825.569 8      4720.638    22176413.256   116537825.570 7      4720.638    22176419.174    90808691.183 7      3678.419    22176421.880    90808726.187 7      3678.419
G18  22614940.674   118842313.921 7     10533.867    22614940.214   118842313.925 6     10533.867    22614949.651    92604404.122 6      8208.208    22614950.180    92604438.127 8      8208.208
G31  22844470.754   120048496.484 8      9085.645    22844470.423   120048496.483 5      9085.645    22844476.989    93544283.672 5      7079.723    22844478.140    93544310.679 7      7079.723
G20  23058594.257   121173723.980 7      7313.990    23058593.195   121173723.983 5      7313.990    23058602.748    94421115.454 5      5699.213
R21  22585905.127   120861750.518 7     11006.645    22585903.005   120861750.542 7     11006.645    22585918.576    94003638.691 7      8560.724    22585918.740    94003642.696 7      8560.724
> 2024 05 02 08 28 35.0000000  0 13
G05  23075942.661   121264900.538 7      9385.440    23075939.875   121264900.534 7      9385.440    23075952.237    94492169.127 7      7313.330    23075952.740    94492176.138 7      7313.330
R19  21438864.929   114683459.228 7      3926.835    21438865.103   114683459.248 6      3926.835    21438876.905    89198285.784 7      3054.205    21438876.880    89198285.786 7      3054.205
G25  20161302.762   105948350.255 8      6038.318    20161302.110   105948350.253 8      6038.318    20161311.085    82557153.330 8      4705.183    20161312.440    82557192.334 8      4705.183
R20  19179913.038   102563613.987 7      7956.950    19179912.865   102563613.986 6      7956.950    19179924.621    79771743.330 7      6188.739    19179925.280    79771746.333 7      6188.739
G29  20509011.154   107775571.817 8      7486.549    20509009.185   107775571.818 8      7486.549    20509014.757    83980963.782 8      5833.674    20509016.860    83980987.779 8      5833.674
R09  19517832.616   104224126.098 8      5392.155    19517832.511   104224126.080 8      5392.155    19517842.216    81063245.212 8      4193.898    19517841.760    81063245.204 8      4193.898
R10  19355780.639   103177191.675 8      8861.872    19355780.594   103177191.657 8      8861.872
G28  21600916.390   113513573.199 7      7357.196    21600916.157   113513573.203 6      7357.196    21600922.812    88452135.887 6      5732.880    21600923.460    88452161.888 8      5732.880
G12  22171922.395   116514222.305 8      4720.687    22171921.912   116514222.306 7      4720.687    22171927.832    90790299.006 7      3678.457    22171930.660    90790334.008 7      3678.457
G18  22604917.745   118789644.499 7     10533.850    22604918.366   118789644.494 6     10533.850    22604926.590    92563363.015 6      8208.195    22604927.240    92563397.024 8      8208.195
G31  22835826.404   120003071.260 7      9084.351    22835826.033   120003071.261 5      9084.351    22835833.004    93508887.398 5      7078.715    22835833.640    93508914.401 7      7078.715
G20  23051635.922   121137157.371 7      7312.539    23051634.765   121137157.362 5      7312.539    23051643.537    94392622.004 5      5698.082
R21  22575620.908   120806717.827 8     11006.513    22575620.776   120806717.863 8     11006.513    22575634.497    93960835.500 7      8560.621    22575634.480    93960839.495 7      8560.621
> 2024 05 02 08 28 40.0000000  0 13
G05  23366807.293   122793404.899 7      9384.643    23366805.017   122793404.895 7      9384.643    23366817.127    95683211.503 7      7312.709    23366818.080    95683218.514 7      7312.709
R19  21734987.326   116267515.845 6      3926.981    21734988.394   116267515.848 6      3926.981    21734999.366    90430329.771 7      3054.318    21734999.640    90430329.776 7      3054.318
G25  20455351.723   107493587.879 8      6037.250    20455350.999   107493587.876 8      6037.250    20455360.000    83761234.586 8      4704.350    20455361.480    83761273.592 8      4704.350
R20  19472268.362   104126968.161 7      7954.764    19472268.213   104126968.165 7      7954.764    19472279.626    80987685.461 7      6187.038    19472280.340    80987688.462 7      6187.038
G29  20801682.132   109313567.508 8      7486.348    20801680.132   109313567.505 8      7486.348    20801685.625    85179401.972 8      5833.518    20801687.920    85179425.972 8      5833.518
R09  19812578.324   105798051.851 9      5389.870    19812578.423   105798051.834 8      5389.870    19812588.028    82287409.681 8      4192.121    19812587.580    82287409.676 8      4192.121
R10  19647263.663   104730959.302 8      8859.789    19647263.257   104730959.284 8      8859.789
G28  21893711.262   115052219.984 7      7355.204    21893711.268   115052219.983 6      7355.204    21893717.767    89651081.424 6      5731.328    21893717.940    89651107.423 8      5731.328
G12  22467224.490   118066044.801 8      4720.417    22467224.060   118066044.798 7      4720.417    22467229.551    91999511.315 7      3678.247    22467232.400    91999546.319 7      3678.247
G18  22894689.859   120312406.385 7     10533.652    22894689.816   120312406.376 6     10533.652    22894697.899    93749930.732 6      8208.041    22894699.360    93749964.741 8      8208.041
G31  23126977.795   121533082.470 8      9082.923    23126977.203   121533082.470 6      9082.923    23126983.913    94701103.916 6      7077.602    23126984.920    94701130.918 7      7077.602
G20  23344472.656   122676026.126 7      7310.950    23344471.589   122676026.130 5      7310.950    23344481.073    95591740.506 5      5696.844
R21  22865131.598   122355947.658 8     11006.162    22865133.053   122355947.692 8     11006.162    22865144.929    95165792.060 7      8560.348    22865145.040    95165796.052 7      8560.348
> 2024 05 02 08 28 45.0000000  0 13
G05  23357878.208   122746483.495 7      9383.881    23357876.401   122746483.497 7      9383.881    23357888.359    95646649.404 7      7312.115    23357889.700    95646656.411 7      7312.115
R19  21731316.174   116247879.481 6      3927.454    21731317.269   116247879.497 6      3927.454    21731328.692    90415057.025 7      3054.686    21731328.960    90415057.028 7      3054.686
G25  20449607.874   107463404.010 8      6036.236    20449607.263   107463404.010 8      6036.236    20449616.192    83737714.682 8      4703.561    20449617.400    83737753.691 8      4703.561
R20  19464831.567   104087200.110 7      7952.578    19464831.103   104087200.122 6      7952.578    19464842.692    80956754.759 7      6185.338    19464843.380    80956757.762 7      6185.338
G29  20794559.238   109276136.537 8      7486.071    20794557.259   109276136.535 8      7486.071    20794562.757    85150234.975 8      5833.302    20794565.020    85150258.978 8      5833.302
R09  19807532.700   105771107.612 9      5387.726    19807532.271   105771107.598 8      5387.726    19807542.361    82266453.029 8      4190.454    19807542.120    82266453.024 8      4190.454
R10  19638954.224   104686665.549 8      8857.778    19638953.764   104686665.531 8      8857.778
G28  21886713.674   115015448.923 7      7353.260    21886713.542   115015448.920 6      7353.260    21886720.416    89622428.637 6      5729.813    21886720.640    89622454.637 8      5729.813
G12  22462733.137   118042443.266 8      4720.199    22462733.051   118042443.265 7      4720.199    22462738.599    91981120.490 7      3678.077    22462740.980    91981155.493 7      3678.077
G18  22884667.486   120259738.191 7     10533.471    22884667.705   120259738.186 6     10533.471    22884675.829    93708890.594 6      8207.899    22884676.660    93708924.593 8      8207.899
G31  23118336.286   121487671.638 7      9081.312    23118335.937   121487671.636 5      9081.312    23118342.208    94665718.862 5      7076.347    23118343.280    94665745.860 7      7076.347
G20  23337517.565   122639475.323 7      7309.399    23337515.886   122639475.331 5      7309.399    23337525.058    95563259.358 5      5695.636
R21  22854847.876   122300917.688 8     11005.826    22854849.789   122300917.718 8     11005.826    22854861.231    95122990.982 7      8560.087    22854861.100    95122994.978 7      8560.087
> 2024 05 02 08 28 50.0000000  0 13
G05  23348950.324   122699565.952 7      9383.053    23348948.120   122699565.954 7      9383.053    23348959.051    95610090.306 7      7311.470    23348961.100    95610097.312 7      7311.470
R19  21727645.678   116228241.841 6      3927.583    21727646.298   116228241.852 6      3927.583    21727657.547    90399783.274 7      3054.787    21727657.960    90399783.277 7      3054.787
G25  20443864.836   107433224.937 8      6035.317    20443864.259   107433224.934 8      6035.317    20443873.255    83714198.509 8      4702.845    20443874.660    83714237.514 8      4702.845
R20  19457397.258   104047443.001 7      7950.175    19457396.414   104047443.012 7      7950.175    19457407.917    80925832.561 7      6183.469    19457408.740    80925835.565 7      6183.469
G29  20787436.394   109238706.618 8      7485.764    20787434.508   109238706.617 8      7485.764    20787439.981    85121068.805 8      5833.063    20787442.220    85121092.810 8      5833.063
R09  19802488.761   105744174.011 8      5385.525    19802488.141   105744173.998 8      5385.525    19802498.419    82245504.664 8      4188.741    19802498.300    82245504.662 8      4188.741
R10  19630646.320   104642382.147 8      8855.577    19630646.337   104642382.125 8      8855.577
G28  21879718.532   114978687.606 7      7351.160    21879718.249   114978687.610 6      7351.160    21879724.857    89593783.448 6      5728.176    21879725.160    89593809.455 8      5728.176
G12  22458242.331   118018842.641 8      4719.980    22458241.916   118018842.640 7      4719.980    22458247.332    91962730.382 7      3677.907    22458249.940    91962765.382 7      3677.907
G18  22874645.318   120207070.679 7     10533.280    22874645.435   120207070.683 6     10533.280    22874653.717    93667850.980 6      8207.751    22874654.220    93667884.980 8      8207.751
G31  23109696.361   121442268.032 7      9079.955    23109695.947   121442268.029 5      9079.955    23109702.397    94630339.433 5      7075.290    23109702.840    94630366.427 7      7075.290
G20  23330563.718   122602932.486 7      7307.671    23330562.708   122602932.500 5      7307.671    23330571.580    95534784.418 5      5694.289
R21  22844564.342   122245889.151 8     11005.453    22844566.508   122245889.167 8     11005.453    22844577.773    95080191.028 7      8559.797    22844577.400    95080195.023 7      8559.797
> 2024 05 02 08 28 55.0000000  0 13
G05  23340023.140   122652652.660 7      9382.212    23340020.296   122652652.659 7      9382.212    23340031.688    95573534.500 7      7310.814    23340033.560    95573541.498 7      7310.814
R19  21723974.482   116208603.069 6      3927.716    21723975.190   116208603.081 6      3927.716    21723986.261    90384508.649 7      3054.890    21723986.580    90384508.654 7      3054.890
G25  20438122.956   107403051.029 8      6034.183    20438122.388   107403051.021 8      6034.183    20438131.291    83690686.362 8      4701.961    20438132.600    83690725.367 8      4701.961
R20  19449964.247   104007697.253 7      7947.858    19449963.898   104007697.259 7      7947.858    19449975.427    80894919.196 7      6181.667    19449975.800    80894922.199 7      6181.667
G29  20780314.151   109201278.079 8      7485.520    20780312.082   109201278.080 8      7485.520    20780317.561    85091903.702 8      5832.872    20780319.900    85091927.705 8      5832.872
R09  19797447.029   105717251.495 9      5383.348    19797446.685   105717251.481 8      5383.348    19797456.786    82224564.919 8      4187.048    19797456.540    82224564.919 8      4187.048
R10  19622340.661   104598109.358 8      8853.413    19622341.026   104598109.335 8      8853.413
G28  21872724.948   114941936.362 8      7349.143    21872724.664   114941936.367 6      7349.143    21872731.127    89565146.113 6      5726.605    21872731.760    89565172.121 8      5726.605
G12  22453751.299   117995243.310 8      4719.651    22453751.139   117995243.308 7      4719.651    22453756.523    91944341.259 7      3677.650    22453759.100    91944376.258 7      3677.650
G18  22864623.371   120154404.226 7     10533.135    22864623.418   120154404.222 6     10533.135    22864631.524    93626812.192 6      8207.637    22864631.880    93626846.189 8      8207.637
G31  23101057.931   121396872.058 7      9078.390    23101057.659   121396872.049 5      9078.390    23101063.404    94594965.928 5      7074.070    23101064.120    94594992.929 7      7074.070
G20  23323611.231   122566397.930 7      7306.066    23323610.379   122566397.937 5      7306.066    23323618.924    95506315.924 5      5693.038
R21  22834281.393   122190862.374 8     11005.044    22834283.091   122190862.379 8     11005.044    22834294.822    95037392.440 7      8559.478    22834294.160    95037396.436 7      8559.478
> 2024 05 02 08 29  0.0000000  0 13
G05  23331096.628   122605743.629 7      9381.405    23331093.254   122605743.621 6      9381.405    23331104.951    95536982.028 6      7310.186    23331106.000    95536989.026 7      7310.186
R19  21720303.373   116188963.275 6      3928.199    21720303.405   116188963.283 6      3928.199    21720314.864    90369233.245 7      3055.266    21720315.040    90369233.250 7      3055.266
G25  20432382.083   107372882.315 8      6033.186    20432381.465   107372882.310 8      6033.186    20432390.473    83667178.257 8      4701.184    20432391.440    83667217.263 8      4701.184
R20  19442533.950   103967962.990 7      7945.688    19442533.361   103967962.983 7      7945.688    19442544.912    80864014.760 7      6179.979    19442545.680    80864017.760 7      6179.979
G29  20773191.743   109163850.971 8      7485.280    20773189.988   109163850.970 8      7485.280    20773195.316    85062739.717 8      5832.686    20773197.860    85062763.720 8      5832.686
R09  19792407.481   105690340.067 8      5381.241    19792407.135   105690340.051 8      5381.241    19792417.129    82203633.791 8      4185.410    19792416.940    82203633.789 8      4185.410
R10  19614037.539   104553847.175 8      8851.387    19614037.507   104553847.155 8      8851.387
G28  21865733.412   114905195.250 7      7347.283    21865733.331   114905195.248 6      7347.283    21865739.548    89536516.661 6      5725.156    21865740.260    89536542.665 8      5725.156
G12  22449260.629   117971645.240 8      4719.567    22449260.611   117971645.237 7      4719.567    22449265.934    91925953.132 7      3677.585    22449268.460    91925988.134 7      3677.585
G18  22854601.163   120101738.890 8     10532.943    22854601.743   120101738.890 6     10532.943    22854609.418    93585774.280 6      8207.488    22854609.980    93585808.278 8      8207.488
G31  23092420.812   121351483.745 7      9076.890    23092420.198   121351483.750 6      9076.890    23092427.052    94559598.414 6      7072.901    23092427.760    94559625.422 7      7072.901
G20  23316660.633   122529871.743 7      7304.572    23316659.553   122529871.750 5      7304.572    23316667.794    95477853.956 5      5691.874
R21  22823998.486   122135837.474 8     11004.901    22823999.688   122135837.472 8     11004.901    22824011.815    94994595.285 7      8559.367    22824011.540    94994599.288 7      8559.367
> 2024 05 02 08 29  5.0000000  0 13
G05  23322170.552   122558838.522 7      9380.696    23322167.376   122558838.521 7      9380.696    23322179.231    95500432.612 7      7309.633    23322179.880    95500439.611 7      7309.633
R19  21716631.269   116169322.330 7      3928.168    21716631.559   116169322.351 6      3928.168    21716643.305    90353956.933 7      3055.242    21716643.680    90353956.936 7      3055.242
G25  20426642.142   107342718.438 8      6032.347    20426641.467   107342718.436 8      6032.347    20426650.278    83643673.920 8      4700.530    20426651.560    83643712.919 8      4700.530
R20  19435105.142   103928239.758 7      7943.443    19435105.189   103928239.764 7      7943.443    19435116.434    80833118.920 7      6178.233    19435116.920    80833121.923 7      6178.233
G29  20766069.973   109126424.972 8      7485.086    20766067.985   109126424.973 8      7485.086    20766073.521    85033576.596 8      5832.535    20766075.720    85033600.601 8      5832.535
R09  19787369.928   105663439.431 8      5379.080    19787369.723   105663439.416 8      5379.080    19787379.517    82182711.053 8      4183.729    19787379.140    82182711.049 8      4183.729
R10  19605736.018   104509595.503 8      8849.307    19605736.069   104509595.482 8      8849.307
G28  21858743.846   114868463.962 7      7345.268    21858743.455   114868463.960 6      7345.268    21858750.391    89507894.867 6      5723.586    21858750.880    89507920.873 8      5723.586
G12  22444770.535   117948048.124 8      4719.323    22444770.355   117948048.126 7      4719.323    22444775.439    91907565.756 7      3677.394    22444777.920    91907600.765 7      3677.394
G18  22844579.441   120049074.333 7     10532.835    22844579.330   120049074.336 6     10532.835    22844587.985    93544736.974 6      8207.404    22844588.400    93544770.977 8      8207.404
G31  23083785.010   121306102.776 7      9075.471    23083784.384   121306102.779 5      9075.471    23083791.812    94524236.621 5      7071.795    23083791.920    94524263.637 7      7071.795
G20  23309711.321   122493353.666 7      7302.770    23309710.147   122493353.670 5      7302.770    23309718.250    95449398.319 5      5690.470
R21  22813716.198   122080814.171 8     11004.578    22813716.104   122080814.169 8     11004.578    22813729.388    94951799.384 7      8559.116    22813729.100    94951803.404 7      8559.116
> 2024 05 02 08 29 10.0000000  0 13
G05  23313245.782   122511938.213 7      9379.770    23313241.952   122511938.212 7      9379.770    23313254.349    95463886.937 7      7308.911    23313255.060    95463893.949 7      7308.911
R19  21712960.156   116149680.792 6      3928.426    21712960.265   116149680.793 6      3928.426    21712971.422    90338680.140 7      3055.442    21712971.960    90338680.144 7      3055.442
G25  20420903.359   107312560.122 8      6031.228    20420902.587   107312560.119 8      6031.228    20420911.369    83620173.925 8      4699.658    20420912.520    83620212.925 8      4699.658
R20  19427678.767   103888528.311 7      7941.246    19427678.534   103888528.321 7      7941.246    19427689.959    80802232.239 7      6176.525    19427690.800    80802235.240 7      6176.525
G29  20758948.506   109089000.761 8      7484.765    20758946.386   109089000.760 8      7484.765    20758952.004    85004414.866 8      5832.285    20758954.460    85004438.870 8      5832.285
R09  19782334.458   105636550.157 8      5376.862    19782334.391   105636550.142 8      5376.862    19782344.178    82161797.162 8      4182.004    19782343.800    82161797.157 8      4182.004
R10  19597436.686   104465354.982 8      8847.041    19597436.594   104465354.967 8      8847.041
G28  21851755.906   114831743.151 7      7343.136    21851755.950   114831743.152 6      7343.136    21851762.572    89479281.235 6      5721.924    21851763.040    89479307.244 8      5721.924
G12  22440280.317   117924452.660 8      4719.003    22440280.232   117924452.658 7      4719.003    22440285.424    91889179.646 7      3677.146    22440288.200    91889214.654 7      3677.146
G18  22834557.947   119996411.257 7     10532.560    22834557.943   119996411.261 6     10532.560    22834566.061    93503700.835 6      8207.189    22834566.920    93503734.837 7      8207.189
G31  23075150.703   121260729.858 7      9073.905    23075150.485   121260729.857 5      9073.905    23075157.470    94488881.101 5      7070.576    23075157.880    94488908.111 7      7070.576
G20  23302763.749   122456844.275 7      7300.980    23302761.979   122456844.279 5      7300.980    23302771.550    95420949.438 5      5689.075
R21  22803434.048   122025793.183 7     11004.077    22803434.010   122025793.190 8     11004.077    22803447.175    94909005.267 7      8558.726    22803447.140    94909009.279 7      8558.726
> 2024 05 02 08 29 15.0000000  0 13
G05  23304321.682   122465042.467 7      9378.651    23304318.415   122465042.461 7      9378.651    23304330.501    95427344.830 7      7308.040    23304331.380    95427351.839 7      7308.040
R19  21709288.917   116130038.368 7      3928.545    21709287.973   116130038.385 6      3928.545    21709299.786    90323402.680 7      3055.535    21709300.020    90323402.678 7      3055.535
G25  20415165.238   107282407.246 8      6030.022    20415164.733   107282407.241 8      6030.022    20415173.547    83596678.165 8      4698.718    20415174.820    83596717.165 8      4698.718
R20  19420254.368   103848828.591 7      7938.717    19420254.858   103848828.593 7      7938.717    19420265.860    80771354.670 7      6174.557    19420267.040    80771357.675 7      6174.557
G29  20751827.227   109051578.237 8      7484.324    20751825.114   109051578.236 8      7484.324    20751830.721    84975254.451 8      5831.941    20751833.440    84975278.450 8      5831.941
R09  19777300.906   105609672.216 8      5374.438    19777300.855   105609672.202 8      5374.438    19777310.718    82140892.085 8      4180.119    19777310.500    82140892.081 8      4180.119
R10  19589139.336   104421125.603 8      8844.789    19589139.269   104421125.583 7      8844.789
G28  21844770.234   114795032.703 7      7340.992    21844770.436   114795032.702 6      7340.992    21844776.712    89450675.703 6      5720.254    21844777.560    89450701.708 8      5720.254
G12  22435790.743   117900858.765 7      4718.584    22435790.559   117900858.762 7      4718.584    22435795.863    91870794.793 7      3676.818    22435798.460    91870829.798 7      3676.818
G18  22824536.798   119943749.589 7     10532.243    22824536.563   119943749.579 6     10532.243    22824544.952    93462665.767 6      8206.943    22824545.640    93462699.774 7      8206.943
G31  23066518.122   121215364.889 7      9072.165    23066517.885   121215364.888 5      9072.165    23066524.879    94453531.767 5      7069.220    23066525.600    94453558.783 7      7069.220
G20  23295818.534   122420343.505 7      7299.216    23295816.522   122420343.511 5      7299.216    23295825.504    95392507.290 5      5687.701
R21  22793152.663   121970774.288 7     11003.506    22793152.332   121970774.309 8     11003.506    22793166.315    94866212.849 7      8558.283    22793166.200    94866216.857 7      8558.283
> 2024 05 02 08 29 20.0000000  0 13
G05  23295398.835   122418151.268 7      9377.824    23295395.737   122418151.269 7      9377.824    23295407.779    95390806.246 7      7307.396    23295408.600    95390813.256 7      7307.396
R19  21705616.988   116110395.158 6      3928.869    21705616.219   116110395.151 6      3928.869    21705627.760    90308124.588 7      3055.787    21705627.980    90308124.587 7      3055.787
G25  20409428.323   107252259.725 8      6029.022    20409427.868   107252259.720 8      6029.022    20409436.526    83573186.576 8      4697.940    20409437.780    83573225.578 8      4697.940
R20  19412832.624   103809140.315 7      7936.580    19412833.082   103809140.322 6      7936.580    19412843.759    80740486.012 7      6172.896    19412844.680    80740489.016 7      6172.896
G29  20744706.390   109014157.322 8      7484.051    20744704.090   109014157.322 8      7484.051    20744709.689    84946095.293 8      5831.728    20744712.060    84946119.295 8      5831.728
R09  19772269.711   105582805.565 8      5372.253    19772269.605   105582805.551 8      5372.253    19772279.509    82119995.788 8      4178.419    19772279.380    82119995.785 8      4178.419
R10  19580843.820   104376907.189 8      8842.619    19580843.623   104376907.170 8      8842.619
G28  21837786.409   114758332.548 7      7339.125    21837786.704   114758332.548 6      7339.125    21837792.195    89422078.167 6      5718.799    21837793.400    89422104.169 8      5718.799
G12  22431301.072   117877266.330 8      4718.391    22431300.951   117877266.327 7      4718.391    22431306.522    91852411.036 7      3676.668    22431308.980    91852446.038 7      3676.668
G18  22814515.858   119891089.239 7     10531.931    22814515.970   119891089.239 6     10531.931    22814523.556    93421631.745 6      8206.699    22814524.860    93421665.759 7      8206.699
G31  23057887.075   121170007.802 7      9070.595    23057886.789   121170007.793 5      9070.595    23057893.052    94418188.594 5      7067.996    23057894.420    94418215.611 7      7067.996
G20  23288874.012   122383851.288 7      7297.651    23288872.825   122383851.291 5      7297.651    23288881.205    95364071.793 5      5686.482
R21  22782871.398   121915757.453 7     11003.231    22782871.895   121915757.478 7     11003.231    22782884.790    94823421.971 7      8558.069    22782885.060    94823425.972 7      8558.069
> 2024 05 02 08 29 25.0000000  0 13
G05  23286476.619   122371264.683 7      9376.897    23286473.727   122371264.692 7      9376.897    23286485.610    95354271.280 7      7306.673    23286486.360    95354278.296 7      7306.673
R19  21701944.657   116090751.089 6      3928.745    21701943.975   116090751.091 6      3928.745    21701955.062    90292845.860 7      3055.690    21701955.800    90292845.863 7      3055.690
G25  20403692.748   107222117.638 8      6027.838    20403692.084   107222117.634 8      6027.838    20403700.758    83549699.223 8      4697.017    20403702.260    83549738.229 8      4697.017
R20  19405413.229   103769463.558 7      7934.292    19405413.088   103769463.567 7      7934.292    19405424.318    80709626.309 7      6171.116    19405425.200    80709629.311 7      6171.116
G29  20737585.601   108976738.054 8      7483.689    20737583.651   108976738.053 8      7483.689    20737589.099    84916937.414 8      5831.446    20737591.400    84916961.415 8      5831.446
R09  19767240.761   105555950.219 8      5369.967    19767240.379   105555950.205 8      5369.967    19767250.308    82099108.285 8      4176.641    19767250.160    82099108.284 8      4176.641
R10  19572550.681   104332699.795 8      8840.455    19572550.545   104332699.776 8      8840.455
G28  21830804.749   114721642.798 7      7336.867    21830804.790   114721642.801 6      7336.867    21830811.053    89393488.733 6      5717.039    21830811.460    89393514.734 8      5717.039
G12  22426811.946   117853675.450 8      4718.014    22426811.574   117853675.445 7      4718.014    22426817.165    91834028.515 7      3676.375    22426819.280    91834063.515 7      3676.375
G18  22804495.290   119838430.280 7     10531.689    22804495.140   119838430.274 6     10531.689    22804502.965    93380598.803 6      8206.511    22804503.920    93380632.805 7      8206.511
G31  23049257.583   121124658.649 7      9069.030    23049257.101   121124658.640 6      9069.030    23049263.417    94382851.577 5      7066.777    23049264.380    94382878.594 7      7066.777
G20  23281931.347   122347367.725 7      7295.822    23281930.148   122347367.726 5      7295.822    23281938.470    95335643.038 5      5685.056
R21  22772590.533   121860742.810 8     11002.708    22772592.303   121860742.843 8     11002.708    22772604.288    94780632.817 7      8557.662    22772604.720    94780636.803 7      8557.662
> 2024 05 02 08 29 30.0000000  0 13
G05  23277555.253   122324381.568 7      9376.254    23277552.720   122324381.567 7      9376.254    23277564.808    95317739.002 7      7306.172    23277565.220    95317746.019 7      7306.172
R19  21698271.950   116071105.117 6      3929.293    21698271.478   116071105.129 6      3929.293    21698282.462    90277565.626 7      3056.116    21698282.860    90277565.624 7      3056.116
G25  20397957.809   107191979.873 8      6027.101    20397957.059   107191979.868 8      6027.101    20397965.899    83526215.245 8      4696.442    20397967.400    83526254.252 8      4696.442
R20  19397995.128   103729797.294 7      7932.170    19397995.389   103729797.280 7      7932.170    19398006.414    80678774.753 7      6169.466    19398007.460    80678777.753 7      6169.466
G29  20730465.058   108939319.338 8      7483.671    20730462.929   108939319.336 8      7483.671    20730468.602    84887779.968 8      5831.432    20730471.060    84887803.972 8      5831.432
R09  19762213.389   105529104.938 8      5368.052    19762213.220   105529104.921 8      5368.052    19762222.808    82078228.607 8      4175.151    19762222.820    82078228.605 8      4175.151
R10  19564259.598   104288502.222 8      8838.458    19564259.112   104288502.207 8      8838.458
G28  21823824.481   114684962.272 8      7335.145    21823824.635   114684962.270 6      7335.145    21823830.988    89364906.496 6      5715.697    21823831.300    89364932.496 8      5715.697
G12  22422322.833   117830084.966 8      4718.046    22422322.907   117830084.964 7      4718.046    22422327.679    91815646.307 7      3676.399    22422330.120    91815681.310 7      3676.399
G18  22794474.734   119785771.609 7     10531.776    22794474.447   119785771.614 6     10531.776    22794482.138    93339566.087 6      8206.579    22794483.500    93339600.088 7      8206.579
G31  23040629.366   121079316.343 7      9067.825    23040629.068   121079316.339 5      9067.825    23040635.084    94347519.921 5      7065.838    23040636.160    94347546.931 7      7065.838
G20  23274990.389   122310891.681 7      7294.424    23274989.325   122310891.682 5      7294.424    23274997.219    95307220.152 5      5683.967
R21  22762310.001   121805729.171 8     11002.521    22762312.003   121805729.200 8     11002.521    22762323.541    94737844.431 7      8557.516    22762323.640    94737848.419 7      8557.516
> 2024 05 02 08 29 35.0000000  0 13
G05  23268634.670   122277503.524 7      9375.082    23268632.084   122277503.529 7      9375.082    23268644.353    95281210.669 7      7305.259    23268644.780    95281217.678 7      7305.259
R19  21694599.334   116051458.830 6      3929.171    21694599.003   116051458.841 6      3929.171    21694609.618    90262285.155 7      3056.022    21694610.300    90262285.156 7      3056.022
G25  20392223.880   107161847.966 8      6025.885    20392223.173   107161847.960 8      6025.885    20392232.062    83502735.817 8      4695.495    20392233.420    83502774.825 8      4695.495
R20  19390579.656   103690143.132 7      7929.611    19390580.227   103690143.149 7      7929.611    19390591.146    80647932.646 7      6167.475    19390592.200    80647935.642 7      6167.475
G29  20723344.956   108901902.718 8      7483.205    20723342.794   108901902.714 8      7483.205    20723348.368    84858624.154 8      5831.069    20723350.900    84858648.154 8      5831.069
R09  19757188.399   105502271.385 8      5365.598    19757188.141   105502271.368 8      5365.598    19757197.654    82057358.056 8      4173.243    19757197.500    82057358.057 8      4173.243
R10  19555970.255   104244316.195 8      8836.045    19555970.024   104244316.173 7      8836.045
G28  21816846.609   114648292.538 7      7333.014    21816846.466   114648292.533 6      7333.014    21816853.425    89336332.673 6      5714.037    21816853.600    89336358.673 8      5714.037
G12  22417833.865   117806496.444 8      4717.496    22417833.603   117806496.443 7      4717.496    22417839.206    91797265.613 7      3675.971    22417841.520    91797300.617 7      3675.971
G18  22784454.477   119733114.841 7     10531.188    22784454.434   119733114.839 6     10531.188    22784462.630    93298534.847 6      8206.120    22784463.360    93298568.846 7      8206.120
G31  23032002.535   121033982.435 7      9065.986    23032002.483   121033982.436 5      9065.986    23032008.299    94312194.794 5      7064.405    23032009.420    94312221.813 7      7064.405
G20  23268050.631   122274424.711 7      7292.491    23268049.524   122274424.712 5      7292.491    23268057.984    95278804.338 5      5682.460
R21  22752029.593   121750718.145 8     11002.015    22752032.265   121750718.163 8     11002.015    22752043.312    94695058.087 7      8557.123    22752043.460    94695062.068 7      8557.123
> 2024 05 02 08 29 40.0000000  0 13
G05  23259714.851   122230630.219 7      9374.168    23259711.936   122230630.221 7      9374.168    23259724.655    95244686.034 7      7304.546    23259725.860    95244693.047 7      7304.546
R19  21690925.987   116031811.653 7      3929.417    21690926.141   116031811.666 6      3929.417    21690936.724    90247003.987 7      3056.213    21690937.300    90247003.991 7      3056.213
G25  20386490.930   107131721.538 8      6024.760    20386490.318   107131721.536 8      6024.760    20386499.227    83479260.668 8      4694.618    20386500.440    83479299.675 8      4694.618
R20  19383166.328   103650500.683 7      7927.252    19383166.344   103650500.684 7      7927.252    19383177.845    80617099.618 7      6165.641    19383178.540    80617102.618 7      6165.641
G29  20716225.128   108864487.751 8      7482.809    20716223.194   108864487.749 8      7482.809    20716228.411    84829469.633 8      5830.760    20716230.940    84829493.634 8      5830.760
R09  19752165.399   105475449.248 9      5363.194    19752165.107   105475449.229 8      5363.194    19752174.920    82036496.374 8      4171.373    19752174.880    82036496.370 8      4171.373
R10  19547683.127   104200141.260 8      8833.832    19547682.979   104200141.242 8      8833.832
G28  21809870.365   114611633.255 8      7330.751    21809870.531   114611633.261 6      7330.751    21809876.848    89307766.989 6      5712.273    21809877.340    89307792.988 8      5712.273
G12  22413345.779   117782909.489 8      4717.173    22413345.630   117782909.482 7      4717.173    22413350.672    91778886.151 7      3675.719    22413353.400    91778921.153 7      3675.719
G18  22774434.493   119680459.526 7     10530.817    22774434.367   119680459.518 6     10530.817    22774442.305    93257504.741 6      8205.832    22774443.360    93257538.746 7      8205.832
G31  23023377.064   120988656.556 7      9064.255    23023376.662   120988656.548 5      9064.255    23023383.776    94276875.924 5      7063.056    23023385.000    94276902.934 7      7063.056
G20  23261112.996   122237966.410 7      7290.655    23261111.684   122237966.403 5      7290.655    23261120.386    95250395.256 5      5681.030
R21  22741750.033   121695709.341 8     11001.489    22741752.253   121695709.345 8     11001.489    22741763.303    94652273.457 7      8556.714    22741763.060    94652277.448 7      8556.714
> 2024 05 02 08 29 45.0000000  0 13
G05  23250796.053   122183761.914 7      9372.982    23250792.928   122183761.914 7      9372.982    23250805.907    95208165.292 7      7303.623    23250807.320    95208172.302 7      7303.623
R19  21687252.620   116012163.884 6      3929.306    21687253.171   116012163.894 6      3929.306    21687263.805    90231722.358 7      3056.127    21687264.420    90231722.362 7      3056.127
G25  20380759.324   107101600.884 8      6023.329    20380758.507   107101600.883 8      6023.329    20380767.447    83455790.018 8      4693.503    20380768.620    83455829.022 8      4693.503
R20  19375755.287   103610870.114 7      7924.727    19375755.512   103610870.122 7      7924.727    19375766.802    80586275.842 7      6163.677    19375767.500    80586278.845 7      6163.677
G29  20709105.622   108827074.809 8      7482.211    20709103.653   108827074.807 8      7482.211    20709108.977    84800316.690 8      5830.294    20709111.500    84800340.693 8      5830.294
R09  19747144.607   105448638.700 8      5360.706    19747144.341   105448638.681 8      5360.706    19747154.251    82015643.714 8      4169.438    19747154.120    82015643.711 8      4169.438
R10  19539398.461   104155977.797 8      8831.414    19539398.225   104155977.783 8      8831.414
G28  21802896.441   114574984.657 8      7328.436    21802896.482   114574984.665 6      7328.436    21802902.546    89279209.632 6      5710.470    21802903.200    89279235.634 8      5710.470
G12  22408857.584   117759324.361 8      4716.612    22408857.604   117759324.360 7      4716.612    22408862.715    91760508.113 7      3675.282    22408865.400    91760543.119 7      3675.282
G18  22764414.778   119627805.972 7     10530.284    22764414.732   119627805.973 6     10530.284    22764423.126    93216476.011 6      8205.416    22764423.720    93216510.011 8      8205.416
G31  23014753.304   120943338.960 7      9062.480    23014753.446   120943338.960 5      9062.480    23014760.375    94241563.518 5      7061.672    23014760.440    94241590.525 7      7061.672
G20  23254176.757   122201517.033 7      7288.774    23254175.671   122201517.039 5      7288.774    23254184.714    95221993.162 5      5679.564
R21  22731470.761   121640703.004 8     11000.753    22731471.923   121640703.006 8     11000.753    22731483.984    94609490.761 7      8556.141    22731483.760    94609494.757 7      8556.141
> 2024 05 02 08 29 50.0000000  0 14
G05  23241878.546   122136898.757 7      9371.993    23241874.960   122136898.763 7      9371.993    23241887.889    95171648.563 7      7302.852    23241889.460    95171655.569 7      7302.852
R16  24066522.818   128559050.326 6      3284.494    24066535.205   128559050.364 6      3284.494
R19  21683579.574   115992515.766 6      3929.545    21683579.838   115992515.771 6      3929.545    21683590.882    90216440.459 7      3056.313    21683591.580    90216440.465 7      3056.313
G25  20375028.522   107071486.131 8      6022.273    20375027.808   107071486.130 8      6022.273    20375037.054    83432323.960 8      4692.680    20375038.060    83432362.962 8      4692.680
R20  19368346.347   103571251.587 7      7922.474    19368346.484   103571251.603 7      7922.474    19368357.966    80555461.435 7      6161.924    19368358.680    80555464.436 7      6161.924
G29  20701986.555   108789664.018 8      7481.897    20701984.585   108789664.015 8      7481.897    20701990.020    84771165.413 8      5830.050    20701992.460    84771189.418 8      5830.050
R09  19742126.083   105421839.829 8      5358.560    19742125.542   105421839.815 8      5358.560    19742135.883    81994800.129 8      4167.769    19742135.600    81994800.126 8      4167.769
R10  19531115.633   104111825.902 8      8829.175    19531115.180   104111825.886 8      8829.175
G28  21795924.564   114538346.888 7      7326.413    21795924.314   114538346.890 6      7326.413    21795930.865    89250660.716 6      5708.893    21795931.360    89250686.717 8      5708.893
G12  22404369.782   117735741.231 7      4716.407    22404369.556   117735741.230 7      4716.407    22404375.304    91742131.606 7      3675.122    22404377.760    91742166.607 7      3675.122
G18  22754395.319   119575154.350 7     10530.004    22754394.949   119575154.347 6     10530.004    22754403.335    93175448.770 6      8205.198    22754404.320    93175482.780 8      8205.198
G31  23006131.558   120898029.845 7      9060.906    23006131.378   120898029.842 5      9060.906    23006138.518    94206257.710 5      7060.446    23006138.500    94206284.710 7      7060.446
G20  23247242.490   122165076.775 7      7286.992    23247240.901   122165076.773 5      7286.992    23247250.028    95193598.150 5      5678.176
R21  22721192.082   121585699.394 8     11000.357    22721191.985   121585699.401 8     11000.357    22721205.143    94566710.184 7      8555.833    22721205.160    94566714.190 7      8555.833
> 2024 05 02 08 29 55.0000000  0 13
G05  23232961.482   122090040.675 7      9371.207    23232958.266   122090040.671 7      9371.207    23232970.914    95135135.778 7      7302.239    23232972.560    95135142.778 7      7302.239
R19  21679906.395   115972867.235 6      3929.770    21679906.920   115972867.245 6      3929.770    21679917.968    90201158.248 7      3056.488    21679918.180    90201158.253 7      3056.488
G25  20369298.932   107041377.157 8      6021.316    20369298.300   107041377.154 8      6021.316    20369307.316    83408862.414 8      4691.934    20369308.340    83408901.411 8      4691.934
R20  19360939.875   103531645.088 7      7920.213    19360939.882   103531645.093 7      7920.213    19360951.229    80524656.374 7      6160.166    19360951.980    80524659.373 7      6160.166
G29  20694867.834   108752255.256 8      7481.706    20694865.992   108752255.253 8      7481.706    20694871.377    84742015.721 8      5829.901    20694873.760    84742039.724 8      5829.901
R09  19737109.616   105395052.631 8      5356.404    19737109.337   105395052.617 8      5356.404    19737119.447    81973965.623 8      4166.092    19737119.280    81973965.619 8      4166.092
R10  19522834.911   104067685.425 8      8827.059    19522834.601   104067685.410 8      8827.059
G28  21788954.731   114501719.888 7      7324.354    21788954.624   114501719.885 6      7324.354    21788960.799    89222120.182 6      5707.288    21788961.700    89222146.185 8      5707.288
G12  22399882.396   117712160.063 8      4716.099    22399882.475   117712160.061 7      4716.099    22399887.850    91723756.661 7      3674.882    22399890.640    91723791.661 7      3674.882
G18  22744376.570   119522504.558 7     10529.844    22744376.414   119522504.553 6     10529.844    22744384.798    93134422.980 6      8205.073    22744385.040    93134456.985 7      8205.073
G31  22997510.893   120852729.105 7      9059.379    22997510.705   120852729.103 5      9059.379    22997517.178    94170958.423 5      7059.256    22997517.780    94170985.429 7      7059.256
G20  23240309.834   122128645.549 7      7285.394    23240308.408   122128645.550 5      7285.394    23240318.326    95165210.171 5      5676.930
R21  22710913.753   121530698.428 8     10999.963    22710913.560   121530698.444 8     10999.963    22710926.563    94523931.682 7      8555.526    22710926.720    94523935.688 7      8555.526
> 2024 05 02 08 30  0.0000000  0 13
G05  23224045.621   122043187.605 7      9370.145    23224042.613   122043187.606 7      9370.145    23224054.792    95098626.921 7      7301.411    23224056.000    95098633.922 7      7301.411
R19  21676233.154   115953218.143 6      3929.950    21676233.610   115953218.153 6      3929.950    21676244.468    90185875.576 7      3056.628    21676245.000    90185875.582 7      3056.628
G25  20363570.704   107011273.942 8      6019.956    20363569.974   107011273.940 8      6019.956    20363578.831    83385405.359 8      4690.874    20363579.940    83385444.358 8      4690.874
R20  19353535.687   103492050.469 7      7917.647    19353535.238   103492050.479 7      7917.647    19353547.088    80493860.561 7      6158.170    19353547.820    80493863.562 7      6158.170
G29  20687749.838   108714848.445 8      7481.102    20687747.548   108714848.439 8      7481.102    20687753.166    84712867.546 8      5829.430    20687755.600    84712891.549 8      5829.430
R09  19732095.494   105368276.983 8      5353.929    19732095.182   105368276.971 8      5353.929    19732105.369    81953140.115 8      4164.167    19732105.080    81953140.111 8      4164.167
R10  19514556.390   104023556.433 8      8824.661    19514556.294   104023556.418 8      8824.661
G28  21781986.980   114465103.545 7      7322.083    21781986.823   114465103.545 6      7322.083    21781993.289    89193587.956 6      5705.519    21781993.640    89193613.963 8      5705.519
G12  22395395.508   117688580.653 8      4715.706    22395395.404   117688580.652 7      4715.706    22395401.182    91705383.066 7      3674.576    22395403.840    91705418.066 7      3674.576
G18  22734358.038   119469856.521 7     10529.455    22734357.858   119469856.524 6     10529.455    22734365.800    93093398.549 6      8204.770    22734366.540    93093432.550 8      8204.770
G31  22988892.009   120807436.649 7      9057.599    22988891.905   120807436.639 5      9057.599    22988898.791    94135665.603 5      7057.869    22988899.400    94135692.608 7      7057.869
G20  23233378.880   122092223.266 7      7283.557    23233378.607   122092223.257 5      7283.557    23233386.922    95136829.186 5      5675.499
R21  22700636.085   121475699.974 8     10999.457    22700635.420   121475699.997 8     10999.457    22700648.553    94481155.099 7      8555.133    22700648.620    94481159.103 7      8555.133
> 2024 05 02 08 30  5.0000000  0 13
G05  23215130.777   121996339.601 7      9369.143    23215127.881   121996339.610 7      9369.143    23215139.465    95062122.013 7      7300.631    23215140.600    95062129.016 7      7300.631
R19  21672560.638   115933568.406 6      3930.018    21672560.029   115933568.414 6      3930.018    21672571.143    90170592.418 7      3056.681    21672571.800    90170592.418 7      3056.681
G25  20357843.190   106981176.497 8      6018.968    20357842.771   106981176.492 8      6018.968    20357851.481    83361952.782 8      4690.105    20357852.740    83361991.784 8      4690.105
R20  19346132.979   103452467.724 7      7915.337    19346132.968   103452467.737 7      7915.337    19346144.899    80463073.974 7      6156.373    19346145.740    80463076.976 7      6156.373
G29  20680631.983   108677443.652 8      7480.764    20680629.519   108677443.648 8      7480.764    20680635.393    84683720.954 8      5829.167    20680637.640    84683744.957 8      5829.167
R09  19727083.442   105341512.944 8      5351.657    19727083.406   105341512.930 8      5351.657    19727093.094    81932323.618 8      4162.400    19727092.980    81932323.614 8      4162.400
R10  19506280.309   103979438.927 8      8822.385    19506279.811   103979438.911 8      8822.385
G28  21775021.046   114428497.911 7      7320.099    21775020.841   114428497.916 6      7320.099    21775027.820    89165064.078 6      5703.973    21775028.300    89165090.087 8      5703.973
G12  22390908.855   117665003.088 8      4715.372    22390908.958   117665003.091 7      4715.372    22390914.281    91687010.916 7      3674.316    22390916.820    91687045.917 7      3674.316
G18  22724339.754   119417210.347 7     10529.225    22724340.092   119417210.343 6     10529.225    22724347.837    93052375.563 6      8204.591    22724348.460    93052409.565 8      8204.591
G31  22980274.844   120762152.560 7      9056.082    22980274.773   120762152.550 6      9056.082    22980281.837    94100379.290 6      7056.687    22980282.020    94100406.297 7      7056.687
G20  23226449.563   122055810.002 7      7281.873    23226448.768   122055810.013 5      7281.873    23226456.574    95108455.207 5      5674.187
R21  22690358.780   121420704.177 8     10998.980    22690359.209   121420704.201 8     10998.980    22690371.473    94438380.612 7      8554.762    22690370.980    94438384.616 7      8554.762
> 2024 05 02 08 30 10.0000000  0 13
G05  23206217.028   121949496.345 7      9368.234    23206214.313   121949496.348 7      9368.234    23206225.916    95025620.788 7      7299.923    23206226.700    95025627.787 7      7299.923
R19  21668887.472   115913917.850 6      3930.314    21668886.789   115913917.863 6      3930.314    21668897.649    90155308.626 7      3056.911    21668898.360    90155308.628 7      3056.911
G25  20352116.838   106951084.537 8      6017.816    20352116.384   106951084.536 8      6017.816    20352125.135    83338504.493 8      4689.207    20352126.400    83338543.496 8      4689.207
R20  19338733.258   103412896.547 7      7913.118    19338732.924   103412896.554 6      7913.118    19338745.133    80432296.385 7      6154.647    19338745.780    80432299.388 7      6154.647
G29  20673514.208   108640040.541 8      7480.490    20673511.927   108640040.535 8      7480.490    20673517.830    84654575.666 8      5828.953    20673520.160    84654599.667 8      5828.953
R09  19722073.718   105314760.252 8      5349.395    19722073.538   105314760.240 8      5349.395    19722083.167    81911515.960 8      4160.640    19722083.020    81911515.956 8      4160.640
R10  19498005.847   103935332.646 8      8820.209    19498005.875   103935332.630 8      8820.209
G28  21768057.120   114391902.700 7      7318.061    21768057.056   114391902.698 6      7318.061    21768063.967    89136548.321 6      5702.385    21768064.260    89136574.324 8      5702.385
G12  22386422.687   117641427.069 8      4715.122    22386422.513   117641427.071 7      4715.122    22386428.101    91668639.966 7      3674.121    22386430.540    91668674.969 7      3674.121
G18  22714321.714   119364565.729 7     10528.814    22714321.608   119364565.719 6     10528.814    22714329.861    93011353.789 6      8204.271    22714330.700    93011387.792 8      8204.271
G31  22971659.167   120716876.546 7      9054.395    22971658.930   120716876.548 5      9054.395    22971665.614    94065099.287 5      7055.372    22971666.600    94065126.284 7      7055.372
G20  23219522.217   122019405.424 7      7280.145    23219521.609   122019405.428 5      7280.145    23219529.402    95080087.994 5      5672.840
R21  22680082.073   121365710.607 8     10998.507    22680083.648   121365710.636 8     10998.507    22680094.934    94395607.833 7      8554.395    22680094.300    94395611.825 7      8554.395
> 2024 05 02 08 30 15.0000000  0 13
G05  23197304.008   121902658.082 7      9367.011    23197301.061   121902658.086 7      9367.011    23197312.926    94989123.456 7      7298.969    23197313.900    94989130.462 7      7298.969
R19  21665213.180   115894266.634 6      3930.408    21665212.760   115894266.639 6      3930.408    21665224.268    90140024.317 7      3056.984    21665224.940    90140024.318 7      3056.984
G25  20346391.633   106920998.208 8      6016.696    20346391.088   106920998.204 8      6016.696    20346399.926    83315060.589 8      4688.335    20346401.260    83315099.595 8      4688.335
R20  19331335.140   103373337.171 7      7910.591    19331335.426   103373337.189 6      7910.591    19331347.541    80401527.989 7      6152.682    19331348.120    80401530.992 7      6152.682
G29  20666396.822   108602639.294 8      7479.986    20666394.885   108602639.293 8      7479.986    20666400.689    84625431.830 8      5828.560    20666403.040    84625455.833 8      5828.560
R09  19717065.890   105288018.985 8      5346.981    19717065.744   105288018.966 8      5346.981    19717075.417    81890717.174 8      4158.763    19717075.220    81890717.168 8      4158.763
R10  19489733.771   103891237.687 8      8817.770    19489733.387   103891237.666 7      8817.770
G28  21761095.427   114355318.074 8      7315.882    21761095.219   114355318.071 6      7315.882    21761101.380    89108040.807 6      5700.688    21761102.580    89108066.814 8      5700.688
G12  22381936.559   117617852.807 8      4714.579    22381936.195   117617852.803 7      4714.579    22381942.176    91650270.388 7      3673.698    22381944.780    91650305.391 7      3673.698
G18  22704304.009   119311922.828 7     10528.342    22704304.071   119311922.830 6     10528.342    22704312.484    92970333.356 6      8203.903    22704313.240    92970367.351 8      8203.903
G31  22963044.846   120671608.828 7      9052.522    22963044.830   120671608.828 5      9052.522    22963051.522    94029825.731 6      7053.913    22963051.600    94029852.732 7      7053.913
G20  23212596.168   121983009.752 7      7278.102    23212595.646   121983009.764 5      7278.102    23212604.043    95051727.732 5      5671.248
R21  22669805.646   121310719.520 8     10997.972    22669807.719   121310719.540 8     10997.972    22669818.449    94352837.006 7      8553.978    22669818.160    94352841.019 7      8553.978
> 2024 05 02 08 30 20.0000000  0 14
G05  23188391.843   121855825.282 7      9366.030    23188389.274   121855825.283 7      9366.030    23188401.101    94952630.386 7      7298.205    23188402.600    94952637.395 7      7298.205
R16  24048026.378   128460244.545 6      3286.666    24048073.103   128460244.506 6      3286.666                                                    24048032.740    99913538.838 4      2556.296
R19  21661539.960   115874615.160 6      3930.267    21661539.841   115874615.166 6      3930.267    21661550.639    90124739.816 7      3056.874    21661551.180    90124739.816 7      3056.874
G25  20340667.692   106890918.051 8      6015.412    20340667.036   106890918.045 8      6015.412    20340675.966    83291621.496 8      4687.334    20340677.180    83291660.499 8      4687.334
R20  19323939.623   103333790.129 7      7908.259    19323940.222   103333790.127 6      7908.259    19323951.786    80370769.167 7      6150.868    19323952.680    80370772.168 7      6150.868
G29  20659280.328   108565240.390 8      7479.592    20659278.139   108565240.388 8      7479.592    20659283.754    84596289.823 8      5828.254    20659286.040    84596313.825 8      5828.254
R09  19712060.378   105261289.685 8      5344.742    19712060.075   105261289.667 8      5344.742    19712070.007    81869927.704 8      4157.022    19712070.000    81869927.699 8      4157.022
R10  19481464.031   103847154.684 8      8815.580    19481463.494   103847154.668 8      8815.580
G28  21754135.674   114318744.506 7      7313.719    21754135.382   114318744.503 6      7313.719    21754142.096    89079541.915 6      5699.002    21754142.900    89079567.918 8      5699.002
G12  22377451.158   117594280.790 8      4714.249    22377450.936   117594280.785 7      4714.249    22377456.496    91631902.578 7      3673.441    22377459.020    91631937.581 7      3673.441
G18  22694286.878   119259282.103 7     10528.076    22694287.224   119259282.100 6     10528.076    22694294.881    92929314.622 6      8203.696    22694295.940    92929348.631 8      8203.696
G31  22954432.114   120626349.823 7      9050.950    22954432.368   120626349.822 5      9050.950    22954439.137    93994558.978 5      7052.688    22954439.080    93994585.976 7      7052.688
G20  23205672.538   121946623.420 7      7276.368    23205671.520   121946623.411 5      7276.368    23205679.381    95023374.748 5      5669.897
R21  22659529.720   121255731.267 8     10997.386    22659532.023   121255731.286 8     10997.386    22659542.619    94310068.371 7      8553.523    22659542.360    94310072.386 7      8553.523
> 2024 05 02 08 30 25.0000000  0 14
G05  23179480.863   121808997.348 7      9365.149    23179478.149   121808997.352 7      9365.149    23179490.583    94916141.113 7      7297.519    23179491.860    94916148.119 7      7297.519
R16  24044945.076   128443810.307 7      3287.174    24045002.601   128443810.325 6      3287.174    24044956.078    99900768.783 5      2556.691    24044954.840    99900756.723 4      2556.691
R19  21657866.752   115854962.727 7      3930.758    21657866.122   115854962.729 6      3930.758    21657876.686    90109454.562 7      3057.256    21657877.640    90109454.567 7      3057.256
G25  20334944.763   106860843.407 8      6014.540    20334943.979   106860843.402 8      6014.540    20334952.928    83268186.690 8      4686.655    20334954.120    83268225.697 8      4686.655
R20  19316546.253   103294254.755 7      7906.076    19316546.601   103294254.761 7      7906.076    19316558.540    80340019.434 7      6149.170    19316559.200    80340022.436 7      6149.170
G29  20652163.858   108527843.222 8      7479.388    20652161.836   108527843.218 8      7479.388    20652167.357    84567149.170 8      5828.094    20652169.680    84567173.172 8      5828.094
R09  19707056.716   105234571.703 9      5342.624    19707056.878   105234571.685 8      5342.624    19707066.640    81849147.034 8      4155.374    19707066.520    81849147.029 8      4155.374
R10  19473196.151   103803082.948 8      8813.417    19473196.052   103803082.931 8      8813.417
G28  21747177.888   114282181.423 7      7311.746    21747177.933   114282181.422 6      7311.746    21747183.967    89051051.190 6      5697.464    21747184.980    89051077.195 8      5697.464
G12  22372965.761   117570710.411 8      4714.030    22372965.765   117570710.413 7      4714.030    22372971.361    91613536.024 7      3673.270    22372973.960    91613571.025 7      3673.270
G18  22684270.208   119206643.064 7     10527.756    22684270.181   119206643.065 6     10527.756    22684278.522    92888297.199 6      8203.446    22684279.740    92888331.202 8      8203.446
G31  22945821.545   120581098.983 7      9049.473    22945821.386   120581098.984 6      9049.473    22945828.041    93959298.582 6      7051.537    22945828.340    93959325.584 7      7051.537
G20  23198749.766   121910245.849 7      7274.819    23198748.413   121910245.853 5      7274.819    23198757.348    94995028.599 5      5668.690
R21  22649254.537   121200745.577 8     10997.047    22649256.122   121200745.593 8     10997.047    22649267.066    94267301.723 7      8553.258    22649266.820    94267305.734 7      8553.258
> 2024 05 02 08 30 30.0000000  0 14
G05  23170570.716   121762174.266 7      9364.088    23170567.859   121762174.268 7      9364.088    23170580.075    94879655.604 7      7296.692    23170581.440    94879662.610 7      7296.692
R16  24041863.290   128427373.131 6      3288.029    24041931.862   128427372.893 5      3288.029    24041884.860    99887984.156 5      2557.356    24041880.520    99887972.129 4      2557.356
R19  21654192.988   115835309.432 7      3930.863    21654192.400   115835309.434 6      3930.863    21654202.869    90094168.641 7      3057.338    21654203.620    90094168.638 7      3057.338
G25  20329222.792   106830774.284 8      6013.318    20329222.127   106830774.279 8      6013.318    20329231.093    83244756.202 8      4685.702    20329232.080    83244795.205 8      4685.702
R20  19309155.272   103254731.145 7      7903.577    19309155.520   103254731.156 7      7903.577    19309167.111    80309278.845 7      6147.226    19309167.900    80309281.845 7      6147.226
G29  20645047.615   108490447.767 8      7478.957    20645045.661   108490447.766 8      7478.957    20645051.207    84538009.843 8      5827.758    20645053.420    84538033.846 8      5827.758
R09  19702055.547   105207865.143 8      5340.208    19702055.492   105207865.126 8      5340.208    19702065.081    81828375.264 8      4153.495    19702065.060    81828375.261 8      4153.495
R10  19464930.357   103759022.620 8      8810.906    19464930.446   103759022.605 7      8810.906
G28  21740222.132   114245628.800 7      7309.499    21740221.860   114245628.795 6      7309.499    21740228.078    89022568.618 6      5695.714    21740229.140    89022594.619 8      5695.714
G12  22368480.747   117547141.555 8      4713.680    22368480.773   117547141.551 7      4713.680    22368486.321    91595170.665 7      3672.998    22368489.360    91595205.665 7      3672.998
G18  22674253.508   119154005.613 7     10527.415    22674253.512   119154005.606 6     10527.415    22674261.628    92847281.019 6      8203.181    22674262.540    92847315.023 8      8203.181
G31  22937212.081   120535856.301 7      9047.734    22937211.252   120535856.298 5      9047.734    22937218.480    93924044.535 5      7050.183    22937218.880    93924071.532 7      7050.183
G20  23191828.861   121873877.083 7      7272.761    23191827.013   121873877.083 5      7272.761    23191836.990    94966689.301 5      5667.087
R21  22638979.504   121145762.179 8     10996.519    22638980.168   121145762.186 8     10996.519    22638992.060    94224536.860 7      8552.848    22638991.980    94224540.863 7      8552.848
> 2024 05 02 08 30 35.0000000  0 13
G05  23161661.553   121715356.583 7      9362.860    23161658.360   121715356.587 7      9362.860    23161670.819    94843174.321 7      7295.735    23161671.640    94843181.326 7      7295.735
R19  21650518.951   115815655.815 6      3930.674    21650518.474   115815655.826 6      3930.674    21650528.894    90078882.474 7      3057.191    21650529.680    90078882.477 7      3057.191
G25  20323501.944   106800711.209 8      6011.932    20323501.286   106800711.204 8      6011.932    20323510.198    83221330.414 8      4684.622    20323511.280    83221369.418 8      4684.622
R20  19301766.021   103215219.687 7      7900.978    19301766.636   103215219.686 7      7900.978    19301778.248    80278547.708 7      6145.205    19301779.280    80278550.711 7      6145.205
G29  20637932.183   108453054.553 8      7478.327    20637930.081   108453054.551 8      7478.327    20637935.492    84508872.268 8      5827.268    20637937.940    84508896.271 8      5827.268
R09  19697056.414   105181170.268 8      5337.733    19697056.581   105181170.248 8      5337.733    19697065.896    81807612.562 8      4151.570    19697065.700    81807612.559 8      4151.570
R10  19456667.177   103714974.045 8      8808.461    19456667.050   103714974.029 8      8808.461
G28  21733268.498   114209087.134 7      7307.170    21733268.295   114209087.130 6      7307.170    21733274.461    88994094.583 6      5693.899    21733275.260    88994120.583 8      5693.899
G12  22363996.224   117523574.776 8      4713.113    22363995.827   117523574.769 7      4713.113    22364001.747    91576806.917 7      3672.555    22364004.740    91576841.922 7      3672.555
G18  22664237.528   119101370.335 7     10526.733    22664237.226   119101370.334 6     10526.733    22664245.289    92806266.523 6      8202.649    22664246.180    92806300.516 7      8202.649
G31  22928604.255   120490622.298 7      9045.856    22928603.975   120490622.309 5      9045.856    22928611.358    93888797.261 5      7048.719    22928611.680    93888824.270 7      7048.719
G20  23184909.739   121837517.544 7      7270.860    23184908.323   121837517.545 5      7270.860    23184917.732    94938357.169 5      5665.605
R21  22628705.038   121090781.681 8     10995.737    22628705.187   121090781.689 8     10995.737    22628717.550    94181774.261 7      8552.240    22628717.240    94181778.269 7      8552.240
> 2024 05 02 08 30 40.0000000  0 13
G05  23152753.769   121668544.835 7      9361.744    23152750.527   121668544.837 7      9361.744    23152762.806    94806697.643 7      7294.866    23152763.500    94806704.648 7      7294.866
R19  21646844.664   115796002.319 7      3930.620    21646844.323   115796002.332 6      3930.620    21646855.013    90063596.399 7      3057.149    21646855.620    90063596.404 7      3057.149
G25  20317782.532   106770654.688 8      6010.635    20317781.773   106770654.685 8      6010.635    20317790.474    83197909.727 8      4683.612    20317791.800    83197948.731 8      4683.612
R20  19294379.561   103175720.763 7      7898.526    19294380.190   103175720.758 6      7898.526    19294391.789    80247826.311 7      6143.298    19294392.600    80247829.315 7      6143.298
G29  20630816.884   108415664.075 8      7477.757    20630815.009   108415664.075 8      7477.757    20630820.181    84479736.831 8      5826.824    20630822.520    84479760.833 8      5826.824
R09  19692059.651   105154487.762 8      5335.217    19692059.449   105154487.748 8      5335.217    19692069.085    81786859.490 8      4149.613    19692068.840    81786859.487 8      4149.613
R10  19448405.932   103670937.847 8      8805.933    19448405.864   103670937.834 8      8805.933
G28  21726317.141   114172556.931 7      7304.900    21726316.774   114172556.931 6      7304.900    21726323.240    88965629.488 6      5692.130    21726323.900    88965655.490 8      5692.130
G12  22359511.732   117500010.622 7      4712.445    22359511.772   117500010.619 7      4712.445    22359517.622    91558445.219 7      3672.035    22359520.700    91558480.229 7      3672.035
G18  22654221.891   119048737.708 8     10526.203    22654221.011   119048737.705 6     10526.203    22654230.036    92765254.097 6      8202.236    22654230.640    92765288.097 8      8202.236
G31  22919998.382   120445397.493 7      9044.020    22919998.502   120445397.490 5      9044.020    22920004.804    93853557.152 5      7047.288    22920005.900    93853584.159 7      7047.288
G20  23177992.772   121801167.777 7      7268.995    23177991.290   121801167.771 5      7268.995    23178001.098    94910032.670 5      5664.152
R21  22618431.127   121035804.609 8     10994.976    22618431.073   121035804.623 8     10994.976    22618443.682    94139014.329 7      8551.648    22618443.580    94139018.326 7      8551.648
> 2024 05 02 08 30 45.0000000  0 13
G05  23143846.497   121621738.941 7      9360.574    23143843.140   121621738.940 7      9360.574    23143855.843    94770225.544 7      7293.954    23143857.020    94770232.543 7      7293.954
R19  21643170.677   115776348.789 7      3930.620    21643170.322   115776348.796 7      3930.620    21643181.307    90048310.294 7      3057.149    21643181.880    90048310.301 7      3057.149
G25  20312063.904   106740604.583 8      6009.384    20312063.503   106740604.581 8      6009.384    20312072.292    83174494.063 8      4682.637    20312073.700    83174533.064 8      4682.637
R20  19286996.104   103136234.355 7      7895.948    19286996.183   103136234.364 7      7895.948    19287007.642    80217114.671 7      6141.293    19287008.540    80217117.672 7      6141.293
G29  20623702.213   108378276.249 8      7477.247    20623700.158   108378276.244 8      7477.247    20623705.503    84450603.450 8      5826.426    20623707.920    84450627.451 8      5826.426
R09  19687065.261   105127817.559 8      5332.781    19687064.725   105127817.543 8      5332.781    19687075.020    81766115.987 8      4147.718    19687074.760    81766115.982 8      4147.718
R10  19440147.222   103626913.920 8      8803.402    19440147.078   103626913.905 8      8803.402
G28  21719367.634   114136038.126 7      7302.533    21719367.693   114136038.131 6      7302.533    21719374.174    88937173.271 6      5690.285    21719374.720    88937199.274 8      5690.285
G12  22355028.277   117476448.926 7      4712.036    22355028.227   117476448.924 7      4712.036    22355034.000    91540085.440 7      3671.716    22355036.760    91540120.448 7      3671.716
G18  22644206.535   118996107.653 7     10525.699    22644206.402   118996107.647 6     10525.699    22644214.617    92724243.680 6      8201.844    22644215.340    92724277.675 8      8201.844
G31  22911394.144   120400181.818 7      9042.236    22911394.265   120400181.815 5      9042.236    22911400.626    93818324.159 5      7045.898    22911401.380    93818351.175 7      7045.898
G20  23171077.479   121764827.681 7      7267.062    23171076.651   121764827.686 5      7267.062    23171085.129    94881715.724 5      5662.645
R21  22608158.221   120980830.837 8     10994.399    22608158.115   120980830.862 8     10994.399    22608170.435    94096256.950 7      8551.199    22608170.600    94096260.950 7      8551.199
> 2024 05 02 08 30 50.0000000  0 13
G05  23134940.690   121574938.846 7      9359.408    23134937.857   121574938.849 7      9359.408    23134949.691    94733757.957 7      7293.045    23134951.460    94733764.957 7      7293.045
R19  21639496.385   115756695.156 7      3930.770    21639496.643   115756695.170 6      3930.770    21639507.134    90033024.111 7      3057.265    21639507.820    90033024.114 7      3057.265
G25  20306346.949   106710560.907 8      6008.022    20306346.315   106710560.902 8      6008.022    20306355.106    83151083.388 8      4681.576    20306356.360    83151122.391 8      4681.576
R20  19279614.695   103096760.417 7      7893.652    19279614.391   103096760.423 7      7893.652    19279625.990    80186412.712 7      6139.507    19279626.680    80186415.716 7      6139.507
G29  20616588.115   108340891.035 8      7476.762    20616585.962   108340891.030 8      7476.762    20616591.332    84421472.110 8      5826.048    20616593.840    84421496.110 8      5826.048
R09  19682073.032   105101159.471 8      5330.445    19682072.706   105101159.459 8      5330.445    19682082.709    81745381.905 8      4145.902    19682082.580    81745381.901 8      4145.902
R10  19431890.733   103582902.229 8      8801.071    19431890.312   103582902.213 8      8801.071
G28  21712420.450   114099530.641 7      7300.367    21712420.418   114099530.642 6      7300.367    21712426.880    88908725.873 6      5688.597    21712427.580    88908751.881 8      5688.597
G12  22350545.196   117452889.723 7      4711.515    22350544.947   117452889.722 7      4711.515    22350550.525    91521727.594 7      3671.310    22350553.680    91521762.604 7      3671.310
G18  22634191.752   118943480.158 7     10525.166    22634191.718   118943480.158 6     10525.166    22634200.191    92683235.271 6      8201.428    22634200.660    92683269.267 8      8201.428
G31  22902791.650   120354975.193 7      9040.435    22902791.952   120354975.196 5      9040.435    22902797.803    93783098.220 5      7044.494    22902798.820    93783125.240 7      7044.494
G20  23164164.287   121728497.289 7      7265.138    23164162.330   121728497.291 5      7265.138    23164172.511    94853406.320 5      5661.147
R21  22597885.680   120925860.363 8     10993.771    22597886.717   120925860.388 8     10993.771    22597898.467    94053502.128 7      8550.711    22597898.100    94053506.128 7      8550.711
> 2024 05 02 08 30 55.0000000  0 13
G05  23126035.992   121528144.093 7      9358.465    23126033.497   121528144.097 6      9358.465    23126044.694    94697294.529 6      7292.310    23126046.160    94697301.525 7      7292.310
R19  21635822.358   115737040.964 7      3930.856    21635822.728   115737040.969 7      3930.856    21635833.355    90017737.490 7      3057.333    21635833.840    90017737.492 7      3057.333
G25  20300631.035   106680523.175 8      6006.877    20300630.391   106680523.173 8      6006.877    20300639.099    83127677.354 8      4680.683    20300640.700    83127716.357 8      4680.683
R20  19272235.222   103057298.589 7      7891.105    19272234.873   103057298.606 6      7891.105    19272246.076    80155720.188 7      6137.526    19272247.100    80155723.188 7      6137.526
G29  20609474.353   108303507.981 8      7476.311    20609472.233   108303507.982 8      7476.311    20609477.644    84392342.457 8      5825.697    20609480.140    84392366.458 8      5825.697
R09  19677083.108   105074513.225 8      5327.993    19677082.775   105074513.213 8      5327.993    19677092.503    81724657.033 8      4143.994    19677092.720    81724657.030 8      4143.994
R10  19423636.917   103538902.459 8      8798.664    19423636.040   103538902.439 8      8798.664
G28  21705475.631   114063034.061 7      7298.114    21705475.469   114063034.061 6      7298.114    21705482.072    88880286.972 6      5686.842    21705482.780    88880312.978 8      5686.842
G12  22346062.398   117429332.541 8      4711.166    22346062.345   117429332.535 7      4711.166    22346068.085    91503371.324 7      3671.038    22346070.140    91503406.331 7      3671.038
G18  22624177.507   118890854.775 7     10524.814    22624177.389   118890854.777 6     10524.814    22624185.993    92642228.485 6      8201.154    22624186.380    92642262.479 8      8201.154
G31  22894190.541   120309777.189 7      9038.734    22894189.887   120309777.199 5      9038.734    22894197.445    93747878.995 6      7043.170    22894198.000    93747906.017 7      7043.170
G20  23157252.256   121692176.105 7      7263.239    23157250.724   121692176.101 5      7263.239    23157260.186    94825104.080 5      5659.667
R21  22587613.966   120870892.832 8     10993.168    22587614.939   120870892.856 8     10993.168    22587626.016    94010749.627 7      8550.241    22587626.220    94010753.627 7      8550.241
> 2024 05 02 08 31  0.0000000  0 13
G05  23117132.327   121481355.576 7      9357.125    23117129.961   121481355.574 7      9357.125    23117141.210    94660835.981 7      7291.266    23117142.420    94660842.980 7      7291.266
R19  21632147.879   115717387.058 7      3930.765    21632148.079   115717387.062 7      3930.765    21632159.230    90002451.096 7      3057.262    21632159.880    90002451.096 7      3057.262
G25  20294916.194   106650492.195 8      6005.500    20294915.655   106650492.190 8      6005.500    20294924.577    83104276.581 8      4679.610    20294925.900    83104315.585 8      4679.610
R20  19264858.190   103017849.653 7      7888.533    19264857.485   103017849.661 6      7888.533    19264869.094    80125037.678 7      6135.525    19264869.680    80125040.680 7      6135.525
G29  20602361.185   108266127.881 8      7475.715    20602359.105   108266127.879 8      7475.715    20602364.478    84363215.095 8      5825.232    20602366.780    84363239.095 8      5825.232
R09  19672095.569   105047879.362 8      5325.480    19672095.157   105047879.347 8      5325.480    19672105.194    81703941.790 8      4142.040    19672104.980    81703941.793 8      4142.040
R10  19415384.870   103494915.385 8      8796.057    19415384.285   103494915.366 8      8796.057
G28  21698532.654   114026549.159 7      7295.774    21698532.902   114026549.162 6      7295.774    21698539.194    88851857.163 6      5685.019    21698539.820    88851883.172 8      5685.019
G12  22341580.275   117405778.148 7      4710.554    22341580.196   117405778.151 7      4710.554    22341585.864    91485017.227 7      3670.562    22341588.260    91485052.237 7      3670.562
G18  22614163.637   118838232.328 7     10524.189    22614163.809   118838232.326 6     10524.189    22614171.380    92601223.976 6      8200.667    22614172.540    92601257.979 8      8200.667
G31  22885591.455   120264588.647 7      9036.658    22885590.817   120264588.650 5      9036.658    22885597.668    93712667.136 5      7041.552    22885598.620    93712694.146 7      7041.552
G20  23150342.747   121655864.888 7      7261.122    23150341.304   121655864.890 5      7261.122    23150349.924    94796809.628 5      5658.017
R21  22577342.290   120815928.967 8     10992.311    22577343.868   120815928.993 8     10992.311    22577355.317    93967999.965 7      8549.575    22577354.800    93968003.964 7      8549.575
> 2024 05 02 08 31  5.0000000  0 13
G05  23108230.064   121434573.126 7      9355.735    23108227.542   121434573.126 7      9355.735    23108238.443    94624382.143 7      7290.183    23108238.940    94624389.138 7      7290.183
R19  21628474.368   115697733.328 7      3930.561    21628474.640   115697733.343 6      3930.561    21628485.038    89987164.835 7      3057.103    21628485.760    89987164.838 7      3057.103
G25  20289202.652   106620467.904 8      6004.081    20289202.393   106620467.902 8      6004.081    20289211.060    83080881.008 8      4678.505    20289212.300    83080920.012 8      4678.505
R20  19257483.246   102978413.258 7      7885.889    19257482.709   102978413.273 6      7885.889    19257493.941    80094364.934 7      6133.469    19257494.800    80094367.938 7      6133.469
G29  20595248.430   108228750.515 8      7475.096    20595246.391   108228750.514 8      7475.096    20595251.913    84334089.873 8      5824.750    20595254.240    84334113.876 8      5824.750
R09  19667109.996   105021257.847 8      5322.984    19667110.185   105021257.833 8      5322.984    19667119.698    81683236.158 8      4140.099    19667119.600    81683236.158 8      4140.099
R10  19407135.623   103450940.678 8      8793.582    19407134.830   103450940.664 8      8793.582
G28  21691592.187   113990075.740 7      7293.430    21691592.238   113990075.738 6      7293.430    21691598.756    88823436.310 6      5683.192    21691599.480    88823462.317 8      5683.192
G12  22337098.494   117382226.321 7      4710.045    22337098.169   117382226.317 7      4710.045    22337103.909    91466665.125 7      3670.165    22337106.120    91466700.128 7      3670.165
G18  22604150.471   118785612.593 7     10523.540    22604150.576   118785612.585 6     10523.540    22604158.954    92560221.599 6      8200.161    22604159.180    92560255.601 8      8200.161
G31  22876994.124   120219409.309 7      9034.900    22876993.610   120219409.315 5      9034.900    22877000.384    93677462.463 5      7040.182    22877000.700    93677489.468 7      7040.182
G20  23143434.887   121619563.491 7      7259.210    23143433.823   121619563.488 5      7259.210    23143442.673    94768522.831 5      5656.528
R21  22567071.667   120760968.592 8     10991.662    22567073.340   120760968.612 8     10991.662    22567084.678    93925253.003 7      8549.070    22567084.320    93925256.993 7      8549.070
> 2024 05 02 08 31 10.0000000  0 13
G05  23099329.030   121387796.871 7      9354.636    23099325.616   121387796.867 6      9354.636    23099337.296    94587933.120 7      7289.327    23099337.900    94587940.124 7      7289.327
R19  21624800.016   115678079.867 7      3930.630    21624800.147   115678079.885 6      3930.630    21624810.600    89971878.779 7      3057.157    21624811.280    89971878.782 7      3057.157
G25  20283490.859   106590450.219 8      6002.825    20283490.214   106590450.217 8      6002.825    20283498.771    83057490.603 8      4677.526    20283500.260    83057529.610 8      4677.526
R20  19250110.746   102938989.648 7      7883.529    19250110.105   102938989.653 6      7883.529    19250121.580    80063702.122 7      6131.634    19250122.300    80063705.127 7      6131.634
G29  20588136.221   108191376.082 8      7474.602    20588134.289   108191376.079 8      7474.602    20588139.784    84304966.926 8      5824.365    20588142.060    84304990.929 8      5824.365
R09  19662127.014   104994648.890 8      5320.598    19662127.411   104994648.874 8      5320.598    19662136.622    81662540.279 8      4138.243    19662136.360    81662540.278 8      4138.243
R10  19398888.214   103406978.623 8      8791.130    19398887.898   103406978.604 7      8791.130
G28  21684653.727   113953613.988 8      7291.233    21684653.553   113953613.986 6      7291.233    21684660.196    88795024.545 6      5681.480    21684661.120    88795050.553 8      5681.480
G12  22332617.177   117358677.244 8      4709.570    22332617.054   117358677.243 7      4709.570    22332623.039    91448315.178 7      3669.795    22332625.360    91448350.177 7      3669.795
G18  22594137.736   118732995.783 7     10523.025    22594137.491   118732995.782 6     10523.025    22594146.017    92519221.500 6      8199.760    22594146.300    92519255.504 7      8199.760
G31  22868398.785   120174239.416 7      9033.101    22868398.092   120174239.418 5      9033.101    22868404.454    93642265.134 5      7038.780    22868405.860    93642292.142 7      7038.780
G20  23136528.934   121583272.092 7      7257.241    23136527.926   121583272.095 5      7257.241    23136536.213    94740243.798 5      5654.993
R21  22556801.806   120706011.849 8     10990.955    22556802.795   120706011.862 8     10990.955    22556814.642    93882508.848 7      8548.520    22556814.740    93882512.832 7      8548.520
> 2024 05 02 08 31 15.0000000  0 13
G05  23090428.535   121341026.159 7      9353.501    23090425.510   121341026.156 7      9353.501    23090437.164    94551488.443 7      7288.442    23090437.780    94551495.452 7      7288.442
R19  21621125.342   115658425.740 7      3930.741    21621126.106   115658425.748 6      3930.741    21621136.872    89956592.212 7      3057.243    21621137.440    89956592.219 7      3057.243
G25  20277779.587   106560438.567 8      6001.552    20277779.066   106560438.562 8      6001.552    20277787.765    83034104.890 8      4676.534    20277789.200    83034143.893 8      4676.534
R20  19242740.314   102899578.186 7      7881.041    19242740.099   102899578.183 6      7881.041    19242751.681    80033048.753 7      6129.699    19242752.320    80033051.756 7      6129.699
G29  20581024.624   108154003.872 8      7474.037    20581022.686   108154003.873 8      7474.037    20581028.108    84275845.719 8      5823.925    20581030.440    84275869.719 8      5823.925
R09  19657146.398   104968051.706 9      5318.052    19657146.580   104968051.690 8      5318.052    19657155.849    81641853.566 8      4136.263    19657155.500    81641853.566 8      4136.263
R10  19390643.342   103363028.496 8      8788.745    19390642.999   103363028.480 8      8788.745
G28  21677717.264   113917163.211 8      7288.880    21677717.115   113917163.209 6      7288.880    21677723.805    88766621.336 6      5679.647    21677724.340    88766647.332 8      5679.647
G12  22328136.277   117335130.261 7      4708.945    22328136.050   117335130.260 7      4708.945    22328142.196    91429966.854 7      3669.308    22328144.600    91430001.851 7      3669.308
G18  22584125.540   118680381.206 7     10522.494    22584125.789   118680381.208 6     10522.494    22584133.538    92478223.154 6      8199.346    22584134.540    92478257.159 8      8199.346
G31  22859804.744   120129078.295 7      9031.213    22859804.415   120129078.296 5      9031.213    22859811.303    93607074.649 5      7037.309    22859811.780    93607101.652 7      7037.309
G20  23129624.745   121546989.967 7      7255.293    23129623.153   121546989.966 5      7255.293    23129632.402    94711972.004 5      5653.475
R21  22546532.292   120651058.126 8     10990.232    22546533.048   120651058.130 8     10990.232    22546545.626    93839767.080 7      8547.958    22546545.260    93839771.067 7      8547.958
> 2024 05 02 08 31 20.0000000  0 13
G05  23081529.695   121294262.142 7      9352.301    23081526.646   121294262.139 7      9352.301    23081538.544    94515048.948 7      7287.507    23081538.920    94515055.959 7      7287.507
R19  21617451.639   115638772.218 7      3930.839    21617451.815   115638772.235 6      3930.839    21617462.960    89941306.126 7      3057.319    21617463.220    89941306.126 7      3057.319
G25  20272070.047   106530434.092 8      6000.355    20272069.390   106530434.088 8      6000.355    20272078.179    83010724.769 8      4675.601    20272079.580    83010763.773 8      4675.601
R20  19235372.814   102860180.031 7      7878.511    19235372.569   102860180.029 6      7878.511    19235384.167    80002405.740 7      6127.730    19235385.060    80002408.741 7      6127.730
G29  20573913.472   108116635.036 8      7473.579    20573911.552   108116635.036 8      7473.579    20573916.986    84246727.141 8      5823.568    20573919.340    84246751.143 8      5823.568
R09  19652167.991   104941467.537 9      5315.636    19652168.261   104941467.517 8      5315.636    19652177.491    81621176.985 8      4134.383    19652177.200    81621176.983 8      4134.383
R10  19382400.663   103319091.471 8      8786.285    19382400.348   103319091.457 7      8786.285
G28  21670783.456   113880724.532 7      7286.721    21670782.980   113880724.528 6      7286.721    21670789.665    88738227.538 6      5677.965    21670790.280    88738253.541 8      5677.965
G12  22323656.290   117311586.471 8      4708.521    22323655.944   117311586.474 7      4708.521    22323661.878    91411621.022 7      3668.977    22323664.500    91411656.020 7      3668.977
G18  22574113.911   118627770.020 7     10522.122    22574113.870   118627770.009 6     10522.122    22574122.308    92437227.419 6      8199.056    22574123.100    92437261.427 8      8199.056
G31  22851212.909   120083927.080 7      9029.320    22851211.760   120083927.075 5      9029.320    22851219.221    93571891.894 5      7035.834    22851220.020    93571918.904 7      7035.834
G20  23122722.318   121510718.260 7      7253.380    23122720.592   121510718.263 5      7253.380    23122730.078    94683708.337 5      5651.985
R21  22536263.533   120596108.614 8     10989.553    22536263.552   120596108.624 8     10989.553    22536276.514    93797028.589 7      8547.430    22536276.300    93797032.573 7      8547.430
> 2024 05 02 08 31 25.0000000  0 13
G05  23072631.740   121247503.846 7      9351.035    23072628.570   121247503.843 7      9351.035    23072641.098    94478613.929 7      7286.521    23072641.400    94478620.941 7      7286.521
R19  21613777.871   115619118.383 7      3930.812    21613777.998   115619118.383 6      3930.812    21613788.927    89926019.768 7      3057.298    21613789.340    89926019.771 7      3057.298
G25  20266361.585   106500435.875 8      5998.888    20266361.006   106500435.871 8      5998.888    20266369.696    82987349.520 8      4674.458    20266371.160    82987388.522 8      4674.458
R20  19228007.200   102820794.250 7      7875.915    19228007.238   102820794.268 7      7875.915    19228018.796    79971772.363 7      6125.712    19228019.400    79971775.362 7      6125.712
G29  20566803.051   108079268.617 8      7472.996    20566800.950   108079268.614 8      7472.996    20566806.383    84217610.441 8      5823.114    20566808.900    84217634.443 8      5823.114
R09  19647191.828   104914895.301 8      5313.224    19647191.985   104914895.281 8      5313.224    19647201.634    81600509.664 8      4132.508    19647201.360    81600509.658 8      4132.508
R10  19374160.339   103275166.567 8      8783.615    19374160.086   103275166.552 8      8783.615
G28  21663851.159   113844297.015 7      7284.348    21663851.157   113844297.018 6      7284.348    21663857.989    88709842.462 6      5676.115    21663858.320    88709868.456 8      5676.115
G12  22319176.434   117288044.943 8      4708.088    22319176.052   117288044.941 7      4708.088    22319181.946    91393276.951 7      3668.640    22319185.100    91393311.951 7      3668.640
G18  22564102.753   118575161.316 7     10521.342    22564102.552   118575161.307 6     10521.342    22564110.816    92396233.640 6      8198.448    22564111.900    92396267.653 7      8198.448
G31  22842622.656   120038784.780 7      9027.611    22842622.098   120038784.772 5      9027.611    22842628.108    93536716.084 5      7034.502    22842629.880    93536743.096 7      7034.502
G20  23115821.820   121474456.059 7      7251.521    23115820.920   121474456.061 5      7251.521    23115829.758    94655452.089 5      5650.536
R21  22525995.770   120541162.220 8     10988.863    22525995.457   120541162.232 8     10988.863    22526008.627    93754292.493 7      8546.893    22526007.840    93754296.479 6      8546.893
> 2024 05 02 08 31 30.0000000  0 13
G05  23063735.348   121200751.537 7      9349.902    23063732.208   121200751.539 7      9349.902    23063744.376    94442183.568 7      7285.638    23063744.640    94442190.591 7      7285.638
R19  21610103.607   115599464.262 7      3930.914    21610104.216   115599464.272 7      3930.914    21610114.706    89910733.219 7      3057.377    21610115.280    89910733.218 7      3057.377
G25  20260654.354   106470444.045 8      5997.779    20260653.760   106470444.043 8      5997.779    20260662.495    82963979.250 8      4673.594    20260663.720    82964018.255 8      4673.594
R20  19220644.385   102781421.072 7      7873.464    19220643.829   102781421.082 7      7873.464    19220655.567    79941148.776 7      6123.805    19220656.340    79941151.772 7      6123.805
G29  20559692.833   108041904.774 8      7472.590    20559690.862   108041904.770 8      7472.590    20559696.278    84188495.750 8      5822.798    20559698.940    84188519.752 8      5822.798
R09  19642218.269   104888335.272 8      5310.895    19642217.899   104888335.253 8      5310.895    19642227.691    81579851.854 8      4130.696    19642227.520    81579851.852 8      4130.696
R10  19365922.670   103231254.038 8      8781.414    19365922.087   103231254.023 8      8781.414
G28  21656921.455   113807880.847 7      7282.128    21656921.519   113807880.850 6      7282.128    21656928.120    88681466.218 6      5674.385    21656928.540    88681492.213 8      5674.385
G12  22314697.108   117264505.936 7      4707.561    22314696.744   117264505.934 7      4707.561    22314702.929    91374934.846 7      3668.229    22314705.580    91374969.849 7      3668.229
G18  22554092.410   118522555.192 7     10520.992    22554092.084   118522555.185 6     10520.992    22554100.295    92355241.871 6      8198.176    22554101.220    92355275.872 8      8198.176
G31  22834033.920   119993651.677 7      9025.658    22834033.240   119993651.679 5      9025.658    22834040.063    93501547.416 5      7032.980    22834041.660    93501574.426 7      7032.980
G20  23108923.406   121438203.551 7      7249.519    23108921.560   121438203.552 5      7249.519    23108930.789    94627203.377 5      5648.976
R21  22515728.104   120486219.215 8     10988.250    22515728.623   120486219.230 8     10988.250    22515740.381    93711559.073 7      8546.416    22515739.720    93711563.080 7      8546.416
> 2024 05 02 08 31 35.0000000  0 13
G05  23054839.547   121154005.534 7      9348.704    23054836.749   121154005.531 7      9348.704    23054848.921    94405758.127 7      7284.705    23054849.120    94405765.147 7      7284.705
R19  21606429.632   115579810.474 7      3930.789    21606430.162   115579810.492 6      3930.789    21606440.584    89895446.927 7      3057.280    21606441.300    89895446.923 7      3057.280
G25  20254948.201   106440459.054 8      5996.320    20254947.771   106440459.052 8      5996.320    20254956.604    82940614.303 8      4672.457    20254957.820    82940653.306 8      4672.457
R20  19213283.373   102742060.789 7      7870.771    19213283.610   102742060.787 7      7870.771    19213295.006    79910535.207 7      6121.711    19213295.880    79910538.202 7      6121.711
G29  20552583.413   108004543.941 8      7471.886    20552581.374   108004543.938 8      7471.886    20552586.789    84159383.409 8      5822.249    20552589.480    84159407.411 8      5822.249
R09  19637246.609   104861787.692 8      5308.268    19637246.703   104861787.675 8      5308.268    19637256.361    81559203.721 8      4128.653    19637256.060    81559203.723 8      4128.653
R10  19357687.241   103187354.323 8      8778.715    19357686.592   103187354.312 8      8778.715
G28  21649994.339   113771476.422 8      7279.770    21649994.248   113771476.421 6      7279.770    21650000.564    88653099.122 6      5672.548    21650001.320    88653125.119 8      5672.548
G12  22310218.227   117240969.777 8      4706.982    22310218.100   117240969.777 7      4706.982    22310224.104    91356594.946 7      3667.778    22310226.680    91356629.953 7      3667.778
G18  22544082.239   118469952.163 7     10520.274    22544082.558   118469952.167 6     10520.274    22544090.469    92314252.511 6      8197.616    22544091.060    92314286.507 8      8197.616
G31  22825447.203   119948528.100 7      9023.699    22825446.522   119948528.097 5      9023.699    22825453.722    93466386.180 5      7031.454    22825455.020    93466413.198 7      7031.454
G20  23102026.546   121401961.107 7      7247.565    23102024.797   121401961.107 5      7247.565    23102034.162    94598962.507 5      5647.454
R21  22505461.360   120431279.990 8     10987.429    22505462.178   120431280.016 8     10987.429    22505472.865    93668828.579 7      8545.778    22505472.800    93668832.596 6      8545.778
> 2024 05 02 08 31 40.0000000  0 13
G05  23045945.324   121107265.654 7      9347.493    23045942.904   121107265.658 7      9347.493    23045954.527    94369337.476 7      7283.761    23045955.580    94369344.498 7      7283.761
R19  21602755.165   115560156.674 7      3931.041    21602756.268   115560156.681 6      3931.041    21602766.453    89880160.604 7      3057.476    21602767.140    89880160.603 7      3057.476
G25  20249243.618   106410480.594 8      5995.224    20249243.129   106410480.592 8      5995.224    20249251.875    82917254.457 8      4671.603    20249253.200    82917293.462 8      4671.603
R20  19205925.495   102702712.983 7      7868.522    19205925.517   102702712.977 6      7868.522    19205936.746    79879931.358 7      6119.962    19205937.660    79879934.357 7      6119.962
G29  20545474.334   107967185.826 8      7471.459    20545472.304   107967185.823 8      7471.459    20545477.866    84130273.185 8      5821.916    20545480.360    84130297.187 8      5821.916
R09  19632277.243   104835252.396 8      5306.002    19632277.274   104835252.381 8      5306.002    19632287.207    81538565.143 8      4126.891    19632286.940    81538565.147 8      4126.891
R10  19349454.003   103143467.156 8      8776.359    19349453.505   103143467.138 8      8776.359
G28  21643068.765   113735083.469 8      7277.597    21643069.027   113735083.471 6      7277.597    21643075.291    88624740.973 6      5670.855    21643075.800    88624766.970 8      5670.855
G12  22305740.110   117217436.154 7      4706.640    22305739.688   117217436.152 7      4706.640    22305745.658    91338257.043 7      3667.512    22305748.380    91338292.049 7      3667.512
G18  22534072.450   118417351.925 7     10519.897    22534072.528   118417351.920 6     10519.897    22534080.593    92273265.307 6      8197.322    22534081.360    92273299.315 8      8197.322
G31  22816862.230   119903413.798 7      9022.188    22816862.024   119903413.793 5      9022.188    22816868.977    93431232.187 5      7030.277    22816869.960    93431259.199 7      7030.277
G20  23095131.576   121365728.498 7      7245.710    23095129.774   121365728.496 5      7245.710    23095139.714    94570729.309 5      5646.008
R21  22495195.272   120376344.227 8     10986.884    22495196.453   120376344.254 8     10986.884    22495206.844    93626100.787 7      8545.355    22495206.880    93626104.811 6      8545.355
> 2024 05 02 08 31 45.0000000  0 13
G05  23037052.278   121060531.928 7      9346.064    23037049.825   121060531.927 6      9346.064    23037060.958    94332921.620 6      7282.648    23037062.420    94332928.640 7      7282.648
R19  21599081.997   115540502.947 7      3930.741    21599081.814   115540502.957 6      3930.741    21599092.447    89864874.362 7      3057.243    21599093.220    89864874.360 7      3057.243
G25  20243540.228   106380508.786 8      5993.643    20243539.665   106380508.784 8      5993.643    20243548.389    82893899.796 8      4670.371    20243549.700    82893938.800 8      4670.371
R20  19198569.969   102663377.974 7      7865.705    19198569.649   102663377.968 6      7865.705    19198580.571    79849337.464 7      6117.771    19198581.620    79849340.466 7      6117.771
G29  20538365.899   107929830.510 8      7470.799    20538363.849   107929830.510 8      7470.799    20538369.300    84101165.136 8      5821.402    20538371.580    84101189.140 8      5821.402
R09  19627310.352   104808729.484 8      5303.441    19627310.062   104808729.464 8      5303.441    19627320.314    81517936.187 8      4124.898    19627319.960    81517936.188 8      4124.898
R10  19341223.597   103099592.680 8      8773.506    19341222.777   103099592.661 8      8773.506
G28  21636145.693   113698702.098 8      7275.039    21636145.503   113698702.104 6      7275.039    21636152.340    88596391.849 6      5668.862    21636152.880    88596417.851 8      5668.862
G12  22301262.308   117193905.197 8      4705.859    22301262.346   117193905.193 7      4705.859    22301267.615    91319921.223 7      3666.903    22301269.840    91319956.223 7      3666.903
G18  22524063.899   118364754.581 7     10519.177    22524063.698   118364754.577 6     10519.177    22524071.815    92232280.391 6      8196.761    22524072.900    92232314.395 8      8196.761
G31  22808279.134   119858308.915 7      9019.982    22808278.207   119858308.914 5      9019.982    22808285.649    93396085.523 5      7028.558    22808286.140    93396112.534 7      7028.558
G20  23088238.743   121329505.797 7      7243.571    23088237.582   121329505.792 5      7243.571    23088246.728    94542503.823 5      5644.341
R21  22484930.156   120321412.226 8     10985.978    22484931.232   120321412.246 8     10985.978    22484941.821    93583375.905 7      8544.650    22484941.600    93583379.931 7      8544.650
> 2024 05 02 08 31 50.0000000  0 13
G05  23028160.158   121013804.643 7      9344.820    23028157.725   121013804.641 7      9344.820    23028169.368    94296510.738 7      7281.678    23028171.200    94296517.755 7      7281.678
R19  21595407.843   115520849.335 7      3930.734    21595408.272   115520849.353 6      3930.734    21595418.395    89849588.181 7      3057.238    21595419.260    89849588.177 7      3057.238
G25  20237838.122   106350543.774 8      5992.360    20237837.471   106350543.771 8      5992.360    20237846.362    82870550.415 8      4669.372    20237847.680    82870589.419 8      4669.372
R20  19191216.265   102624055.861 7      7863.105    19191216.199   102624055.866 7      7863.105    19191227.520    79818753.606 7      6115.749    19191228.140    79818756.608 7      6115.749
G29  20531257.880   107892478.170 8      7470.214    20531255.998   107892478.167 8      7470.214    20531261.361    84072059.416 8      5820.946    20531264.040    84072083.420 8      5820.946
R09  19622345.864   104782219.077 9      5300.840    19622345.430   104782219.061 8      5300.840    19622355.560    81497316.981 8      4122.875    19622355.440    81497316.980 8      4122.875
R10  19332995.313   103055730.993 8      8771.188    19332994.325   103055730.974 8      8771.188
G28  21629224.601   113662332.443 8      7272.803    21629224.654   113662332.445 6      7272.803    21629231.289    88568051.843 6      5667.119    21629232.260    88568077.847 8      5667.119
G12  22296784.945   117170377.052 8      4705.350    22296784.837   117170377.049 7      4705.350    22296790.623    91301587.566 7      3666.507    22296793.280    91301622.571 7      3666.507
G18  22514055.741   118312160.306 7     10518.594    22514055.582   118312160.301 6     10518.594    22514063.867    92191297.854 6      8196.307    22514064.600    92191331.858 8      8196.307
G31  22799697.339   119813213.548 7      9018.177    22799696.930   119813213.544 5      9018.177    22799703.566    93360946.271 5      7027.151    22799704.800    93360973.285 7      7027.151
G20  23081347.791   121293293.155 7      7241.500    23081346.851   121293293.151 5      7241.500    23081355.889    94514286.200 5      5642.727
R21  22474665.325   120266484.063 8     10985.318    22474666.782   120266484.077 8     10985.318    22474677.754    93540654.003 7      8544.136    22474677.800    93540658.025 7      8544.136
> 2024 05 02 08 31 55.0000000  0 13
G05  23019269.593   120967083.786 7      9343.651    23019266.316   120967083.782 7      9343.651    23019278.781    94260104.877 7      7280.767    23019280.680    94260111.888 7      7280.767
R19  21591734.096   115501196.037 6      3930.787    21591734.003   115501196.031 6      3930.787    21591744.391    89834302.237 7      3057.279    21591745.040    89834302.236 7      3057.279
G25  20232137.420   106320585.637 8      5991.024    20232136.503   106320585.635 8      5991.024    20232145.479    82847206.402 8      4668.330    20232146.800    82847245.409 8      4668.330
R20  19183865.655   102584746.700 7      7860.603    19183865.189   102584746.707 6      7860.603    19183876.721    79788179.806 7      6113.802    19183877.220    79788182.805 7      6113.802
G29  20524150.720   107855128.872 8      7469.709    20524148.563   107855128.872 8      7469.709    20524154.102    84042956.064 8      5820.553    20524156.780    84042980.069 8      5820.553
R09  19617383.756   104755721.307 8      5298.427    19617383.104   104755721.288 8      5298.427    19617393.467    81476707.588 8      4120.999    19617393.480    81476707.583 8      4120.999
R10  19324769.333   103011882.284 8      8768.637    19324768.725   103011882.260 8      8768.637
G28  21622306.188   113625974.574 7      7270.549    21622305.860   113625974.574 6      7270.549    21622312.764    88539721.030 6      5665.363    21622313.680    88539747.039 8      5665.363
G12  22292308.603   117146851.793 8      4704.938    22292308.379   117146851.792 7      4704.938    22292313.628    91283256.185 7      3666.186    22292316.520    91283291.184 7      3666.186
G18  22504047.880   118259569.169 7     10518.097    22504047.555   118259569.170 6     10518.097    22504055.802    92150317.750 6      8195.920    22504056.460    92150351.752 8      8195.920
G31  22791117.988   119768127.856 7      9016.272    22791117.831   119768127.863 5      9016.272    22791124.308    93325814.567 5      7025.666    22791125.280    93325841.577 7      7025.666
G20  23074458.457   121257090.624 7      7239.745    23074457.244   121257090.624 5      7239.745    23074465.788    94486076.437 5      5641.360
R21  22464401.518   120211559.675 8     10984.672    22464402.651   120211559.684 8     10984.672    22464414.105    93497935.037 7      8543.633    22464414.560    93497939.056 7      8543.633
> 2024 05 02 08 32  0.0000000  0 13
G05  23010379.832   120920369.214 7      9342.087    23010376.633   120920369.208 6      9342.087    23010389.246    94223703.945 6      7279.548    23010390.840    94223710.943 7      7279.548
R19  21588059.650   115481542.805 6      3930.448    21588060.450   115481542.806 6      3930.448    21588070.585    89819016.370 7      3057.015    21588071.300    89819016.370 7      3057.015
G25  20226437.605   106290634.181 8      5989.514    20226436.902   106290634.175 8      5989.514    20226445.877    82823867.597 8      4667.154    20226447.280    82823906.605 8      4667.154
R20  19176516.470   102545450.384 7      7857.824    19176516.498   102545450.380 6      7857.824    19176528.086    79757615.996 7      6111.641    19176528.680    79757618.994 7      6111.641
G29  20517043.846   107817782.408 8      7468.894    20517041.923   107817782.405 8      7468.894    20517047.288    84013854.919 8      5819.917    20517049.760    84013878.922 8      5819.917
R09  19612423.826   104729235.807 8      5295.767    19612423.613   104729235.796 8      5295.767    19612433.677    81456107.724 8      4118.930    19612433.560    81456107.718 8      4118.930
R10  19316545.865   102968046.264 8      8765.862    19316545.109   102968046.247 8      8765.862
G28  21615389.677   113589628.330 8      7267.971    21615389.244   113589628.333 6      7267.971    21615396.107    88511399.268 6      5663.354    21615396.920    88511425.273 8      5663.354
G12  22287832.345   117123329.247 7      4704.114    22287832.186   117123329.245 7      4704.114    22287837.672    91264926.903 7      3665.543    22287840.260    91264961.903 7      3665.543
G18  22494040.473   118206981.031 7     10517.193    22494040.696   118206981.028 6     10517.193    22494048.579    92109340.010 6      8195.216    22494049.740    92109374.011 8      8195.216
G31  22782540.188   119723051.632 7      9014.220    22782540.078   119723051.629 5      9014.220    22782546.351    93290690.228 5      7024.067    22782547.220    93290717.235 7      7024.067
G20  23067571.470   121220898.135 7      7237.425    23067570.396   121220898.131 5      7237.425    23067579.158    94457874.483 5      5639.552
R21  22454138.462   120156639.124 8     10983.685    22454138.614   120156639.127 8     10983.685    22454151.280    93455219.058 7      8542.866    22454151.480    93455223.064 7      8542.866
> 2024 05 02 08 32  5.0000000  0 13
G05  23001491.966   120873661.570 7      9340.795    23001488.169   120873661.560 7      9340.795    23001501.359    94187308.398 7      7278.542    23001502.280    94187315.393 7      7278.542
R19  21584385.701   115461890.052 7      3930.550    21584386.688   115461890.066 6      3930.550    21584396.568    89803730.888 7      3057.094    21584397.340    89803730.886 7      3057.094
G25  20220739.218   106260689.996 8      5988.167    20220738.857   106260689.994 8      5988.167    20220747.698    82800534.452 8      4666.104    20220749.140    82800573.459 8      4666.104
R20  19169170.744   102506167.435 7      7855.287    19169170.412   102506167.435 6      7855.287    19169181.945    79727062.584 7      6109.668    19169182.700    79727065.585 7      6109.668
G29  20509937.744   107780439.403 8      7468.270    20509935.777   107780439.401 8      7468.270    20509941.255    83984756.470 8      5819.431    20509943.520    83984780.474 8      5819.431
R09  19607466.514   104702763.299 9      5293.235    19607466.403   104702763.290 8      5293.235    19607476.208    81435517.995 8      4116.961    19607476.160    81435517.993 8      4116.961
R10  19308324.558   102924223.450 8      8763.204    19308324.524   102924223.431 8      8763.204
G28  21608475.649   113553294.273 8      7265.555    21608475.156   113553294.275 6      7265.555    21608482.309    88483087.027 6      5661.472    21608482.720    88483113.032 8      5661.472
G12  22283356.799   117099809.961 7      4703.569    22283356.556   117099809.960 7      4703.569    22283362.093    91246600.165 7      3665.119    22283364.980    91246635.168 7      3665.119
G18  22484034.129   118154396.450 7     10516.628    22484034.161   118154396.441 6     10516.628    22484042.316    92068365.020 6      8194.775    22484042.940    92068399.021 8      8194.775
G31  22773964.655   119677985.456 7      9012.259    22773964.330   119677985.458 5      9012.259    22773970.063    93255573.736 5      7022.539    22773971.000    93255600.739 7      7022.539
G20  23060685.877   121184716.173 7      7235.390    23060684.668   121184716.178 5      7235.390    23060693.097    94429680.772 5      5637.966
R21  22443875.940   120101722.816 8     10982.750    22443875.119   120101722.830 8     10982.750    22443888.902    93412506.393 7      8542.139    22443888.740    93412510.394 7      8542.139
> 2024 05 02 08 32 10.0000000  0 13
G05  22992604.933   120826960.598 7      9339.424    22992601.284   120826960.599 6      9339.424    22992614.126    94150918.061 6      7277.473    22992615.140    94150925.056 7      7277.473
R19  21580711.903   115442237.625 7      3930.337    21580712.789   115442237.622 6      3930.337    21580722.745    89788445.616 7      3056.929    21580723.640    89788445.617 7      3056.929
G25  20215042.756   106230752.876 8      5986.577    20215041.990   106230752.872 8      5986.577    20215050.872    82777206.824 8      4664.865    20215052.200    82777245.833 8      4664.865
R20  19161826.677   102466897.582 7      7852.552    19161826.687   102466897.592 6      7852.552    19161838.218    79696519.373 7      6107.540    19161838.880    79696522.372 7      6107.540
G29  20502832.397   107743099.631 8      7467.536    20502830.178   107743099.627 8      7467.536    20502835.726    83955660.537 8      5818.859    20502838.260    83955684.541 8      5818.859
R09  19602511.505   104676303.673 9      5290.462    19602511.457   104676303.662 8      5290.462    19602521.291    81414938.271 8      4114.804    19602521.100    81414938.271 8      4114.804
R10  19300105.869   102880413.759 8      8760.497    19300105.851   102880413.740 8      8760.497
G28  21601563.670   113516972.216 7      7263.074    21601563.335   113516972.213 6      7263.074    21601570.298    88454784.095 6      5659.538    21601570.700    88454810.094 8      5659.538
G12  22278881.576   117076293.726 8      4702.845    22278881.480   117076293.723 7      4702.845    22278887.060    91228275.822 7      3664.555    22278889.720    91228310.825 7      3664.555
G18  22474028.188   118101815.266 7     10515.730    22474028.676   118101815.263 6     10515.730    22474036.029    92027392.675 6      8194.076    22474037.040    92027426.678 8      8194.076
G31  22765390.341   119632929.187 7      9010.130    22765389.844   119632929.184 5      9010.130    22765396.126    93220464.953 5      7020.880    22765397.420    93220491.960 7      7020.880
G20  23053802.700   121148544.576 7      7233.164    23053801.234   121148544.575 5      7233.164    23053810.234    94401495.105 5      5636.231
R21  22433614.083   120046810.634 8     10981.913    22433613.318   120046810.648 8     10981.913    22433627.431    93369796.907 7      8541.488    22433626.620    93369800.895 7      8541.488
> 2024 05 02 08 32 15.0000000  0 13
G05  23283513.707   122355696.037 7      9338.077    23283509.825   122355696.038 7      9338.077    23283523.364    95342140.493 7      7276.424    23283523.800    95342147.491 7      7276.424
R19  21876831.667   117026277.449 6      3930.161    21876831.900   117026277.453 6      3930.161    21876842.295    91020476.583 7      3056.792    21876842.980    91020476.582 7      3056.792
G25  20509140.946   107776249.149 8      5985.162    20509140.231   107776249.146 8      5985.162    20509148.997    83981489.622 8      4663.763    20509150.440    83981528.630 8      4663.763
R20  19454279.458   104030773.982 7      7849.878    19454279.579   104030773.986 7      7849.878    19454290.904    80912867.676 7      6105.461    19454291.660    80912870.678 7      6105.461
G29  20795521.277   109281190.872 8      7466.901    20795519.177   109281190.865 8      7466.901    20795524.785    85154173.182 8      5818.364    20795527.160    85154197.181 8      5818.364
R09  19897352.282   106250737.464 9      5288.027    19897352.597   106250737.449 9      5288.027    19897362.100    82639497.870 8      4112.910    19897361.920    82639497.871 8      4112.910
R10  19591683.833   104434688.892 8      8757.887    19591683.981   104434688.869 8      8757.887
G28  21894448.146   115056089.731 7      7260.667    21894447.743   115056089.735 6      7260.667    21894454.344    89654096.437 6      5657.663    21894454.920    89654122.434 8      5657.663
G12  22574200.701   118628205.621 8      4702.203    22574200.571   118628205.619 7      4702.203    22574206.073    92437557.799 7      3664.054    22574209.300    92437592.800 7      3664.054
G18  22763817.650   119624668.295 7     10515.138    22763818.092   119624668.297 6     10515.138    22763825.732    93214031.414 6      8193.614    22763826.260    93214065.419 8      8193.614
G31  23056612.594   121163312.114 7      9008.139    23056612.587   121163312.110 5      9008.139    23056618.865    94412971.133 5      7019.329    23056619.060    94412998.141 7      7019.329
G20  23346715.565   122687810.897 7      7231.084    23346714.026   122687810.895 5      7231.084    23346722.558    95600923.391 5      5634.611
R21  22723147.643   121596163.847 8     10981.049    22723147.639   121596163.868 8     10981.049    22723160.794    94574849.427 7      8540.816    22723160.480    94574853.420 7      8540.816
> 2024 05 02 08 32 20.0000000  0 13
G05  23274629.074   122309009.019 7      9336.660    23274625.873   122309009.012 7      9336.660    23274639.238    95305761.014 7      7275.320    23274639.320    95305768.021 7      7275.320
R19  21873158.003   117006626.374 7      3930.046    21873158.260   117006626.383 6      3930.046    21873168.849    91005192.379 7      3056.703    21873169.420    91005192.382 7      3056.703
G25  20503446.626   107746326.684 8      5983.698    20503446.153   107746326.685 8      5983.698    20503455.096    83958173.408 8      4662.622    20503456.360    83958212.413 8      4662.622
R20  19446941.219   103991530.788 7      7847.186    19446941.111   103991530.803 7      7847.186    19446952.278    80882345.201 7      6103.367    19446952.720    80882348.200 7      6103.367
G29  20788417.051   109243858.059 8      7466.168    20788414.960   109243858.055 8      7466.168    20788420.579    85125082.676 8      5817.793    20788423.200    85125106.676 8      5817.793
R09  19892402.198   106224303.911 9      5285.247    19892402.387   106224303.894 8      5285.247    19892411.991    82618938.420 8      4110.748    19892411.720    82618938.418 8      4110.748
R10  19583470.396   104390906.145 8      8755.196    19583470.311   104390906.132 8      8755.196
G28  21887541.016   115019792.175 7      7258.147    21887540.735   115019792.177 6      7258.147    21887547.119    89625812.615 6      5655.699    21887547.700    89625838.623 8      5655.699
G12  22569727.151   118604696.067 8      4701.537    22569726.869   118604696.064 7      4701.537    22569732.576    92419238.623 7      3663.535    22569735.280    92419273.625 7      3663.535
G18  22753813.074   119572094.411 7     10514.367    22753813.404   119572094.407 6     10514.367    22753821.238    93173064.766 6      8193.013    22753821.860    93173098.768 8      8193.013
G31  23048042.775   121118276.105 7      9006.219    23048042.456   121118276.106 6      9006.219    23048048.334    94377878.157 5      7017.833    23048049.620    94377905.164 7      7017.833
G20  23339836.221   122651660.545 7      7228.870    23339834.839   122651660.541 5      7228.870    23339844.393    95572754.302 5      5632.886
R21  22712887.693   121541260.562 8     10980.140    22712888.431   121541260.589 8     10980.140    22712901.433    94532146.876 7      8540.109    22712900.280    94532150.872 7      8540.109
> 2024 05 02 08 32 25.0000000  0 13
G05  23265746.181   122262329.303 7      9335.393    23265743.301   122262329.307 7      9335.393    23265756.092    95269387.222 7      7274.332    23265756.780    95269394.229 7      7274.332
R19  21869484.682   116986976.145 7      3930.127    21869485.457   116986976.147 6      3930.127    21869495.413    90989908.833 7      3056.766    21869495.620    90989908.835 7      3056.766
G25  20497754.193   107716411.847 8      5982.398    20497753.789   107716411.847 8      5982.398    20497762.467    83934863.137 8      4661.609    20497763.660    83934902.143 8      4661.609
R20  19439604.888   103952301.215 7      7844.864    19439604.747   103952301.229 7      7844.864    19439616.095    80851833.310 7      6101.561    19439616.760    80851836.310 7      6101.561
G29  20781313.524   109206529.044 8      7465.661    20781311.568   109206529.044 8      7465.661    20781317.003    85095995.127 8      5817.398    20781319.500    85096019.127 8      5817.398
R09  19887454.517   106197883.701 9      5282.947    19887454.703   106197883.681 8      5282.947    19887464.226    82598389.352 8      4108.959    19887463.960    82598389.347 8      4108.959
R10  19575259.662   104347137.146 8      8752.725    19575259.015   104347137.127 8      8752.725
G28  21880636.072   114983507.172 7      7255.892    21880635.886   114983507.173 6      7255.892    21880642.491    89597538.581 6      5653.942    21880643.140    89597564.583 8      5653.942
G12  22565253.911   118581190.120 7      4701.102    22565253.675   118581190.120 7      4701.102    22565259.610    92400922.292 7      3663.196    22565262.420    92400957.299 7      3663.196
G18  22743809.262   119519524.502 7     10513.843    22743809.216   119519524.501 6     10513.843    22743817.455    93132101.207 6      8192.605    22743818.000    93132135.211 8      8192.605
G31  23039474.554   121073250.620 7      9004.321    23039474.301   121073250.612 5      9004.321    23039480.799    94342793.350 5      7016.354    23039481.500    94342820.361 7      7016.354
G20  23332959.210   122615521.131 7      7226.986    23332957.587   122615521.127 5      7226.986    23332966.790    95544593.709 5      5631.418
R21  22702628.318   121486361.938 8     10979.490    22702629.778   121486361.969 8     10979.490    22702642.256    94489447.956 7      8539.603    22702640.700    94489451.955 7      8539.603
> 2024 05 02 08 32 30.0000000  0 13
G05  23256864.787   122215656.407 7      9333.776    23256861.701   122215656.405 7      9333.776    23256874.696    95233018.742 7      7273.073    23256875.580    95233025.744 7      7273.073
R19  21865811.033   116967326.273 7      3929.795    21865811.922   116967326.272 6      3929.795    21865822.160    90974625.564 7      3056.507    21865822.520    90974625.571 7      3056.507
G25  20492062.917   107686504.086 8      5980.689    20492062.429   107686504.087 8      5980.689    20492071.073    83911558.380 8      4660.277    20492072.460    83911597.386 8      4660.277
R20  19432271.276   103913084.778 7      7841.786    19432271.238   103913084.800 7      7841.786    19432282.602    80821331.643 7      6099.167    19432283.380    80821334.643 7      6099.167
G29  20774210.696   109169203.215 8      7464.740    20774208.723   109169203.217 8      7464.740    20774214.235    85066910.059 8      5816.680    20774216.700    85066934.062 8      5816.680
R09  19882509.306   106171476.133 9      5280.170    19882509.428   106171476.115 8      5280.170    19882519.044    82577850.111 8      4106.799    19882518.820    82577850.105 8      4106.799
R10  19567050.880   104303381.386 8      8749.751    19567050.583   104303381.370 8      8749.751
G28  21873733.221   114947234.125 8      7253.290    21873733.227   114947234.121 6      7253.290    21873740.328    89569273.857 6      5651.914    21873740.620    89569299.858 8      5651.914
G12  22560781.559   118557687.226 7      4700.182    22560781.211   118557687.224 7      4700.182    22560787.288    92382608.334 7      3662.479    22560789.960    92382643.339 7      3662.479
G18  22733806.285   119466957.982 7     10512.890    22733806.132   119466957.977 6     10512.890    22733814.282    93091140.306 6      8191.862    22733814.900    93091174.305 8      8191.862
G31  23030908.342   121028234.982 7      9002.046    23030908.326   121028234.980 5      9002.046    23030914.811    94307716.226 5      7014.581    23030915.880    94307743.241 7      7014.581
G20  23326084.290   122579392.057 7      7224.645    23326082.636   122579392.062 5      7224.645    23326091.368    95516441.184 5      5629.593
R21  22692370.168   121431467.471 8     10978.329    22692371.663   121431467.492 8     10978.329    22692383.371    94446752.269 7      8538.700    22692382.480    94446756.272 7      8538.700
> 2024 05 02 08 32 35.0000000  0 13
G05  23247984.282   122168990.806 7      9332.373    23247981.633   122168990.804 6      9332.373    23247993.838    95196655.956 7      7271.979    23247994.720    95196662.967 7      7271.979
R19  21862137.619   116947677.148 6      3929.906    21862138.655   116947677.157 6      3929.906    21862148.972    90959342.894 7      3056.593    21862149.420    90959342.898 7      3056.593
G25  20486373.259   107656603.906 8      5979.279    20486372.676   107656603.899 8      5979.279    20486381.403    83888259.523 8      4659.179    20486382.580    83888298.525 8      4659.179
R20  19424940.323   103873882.028 7      7839.231    19424939.965   103873882.034 7      7839.231    19424951.680    80790840.598 7      6097.180    19424952.240    80790843.600 7      6097.180
G29  20767108.524   109131881.124 8      7464.105    20767106.693   109131881.125 8      7464.105    20767112.017    85037827.910 8      5816.186    20767114.520    85037851.908 8      5816.186
R09  19877566.567   106145081.885 9      5277.563    19877566.651   106145081.866 8      5277.563    19877576.304    82557321.238 8      4104.771    19877575.960    82557321.230 8      4104.771
R10  19558845.139   104259639.330 8      8747.072    19558844.829   104259639.318 8      8747.072
G28  21866833.213   114910973.602 8      7250.848    21866833.223   114910973.596 6      7250.848    21866839.877    89541018.891 6      5650.012    21866840.240    89541044.897 8      5650.012
G12  22556309.597   118534187.916 7      4699.533    22556309.146   118534187.911 7      4699.533    22556315.255    92364297.157 7      3661.974    22556317.800    92364332.160 7      3661.974
G18  22723804.033   119414395.442 7     10512.105    22723803.638   119414395.437 6     10512.105    22723811.855    93050182.493 6      8191.251    22723812.620    93050216.495 8      8191.251
G31  23022344.478   120983229.724 7      9000.001    23022344.032   120983229.725 5      9000.001    23022350.197    94272647.198 5      7012.988    23022351.620    94272674.208 7      7012.988
G20  23319210.867   122543273.848 7      7222.587    23319210.527   122543273.848 5      7222.587    23319218.376    95488297.117 5      5627.990
R21  22682112.929   121376577.681 8     10977.467    22682114.055   121376577.702 8     10977.467    22682125.954    94404060.224 7      8538.030    22682125.440    94404064.225 7      8538.030
> 2024 05 02 08 32 40.0000000  0 13
G05  23239105.502   122122331.800 7      9331.084    23239102.276   122122331.786 7      9331.084    23239114.855    95160298.302 7      7270.975    23239115.640    95160305.311 7      7270.975
R19  21858464.225   116928028.298 7      3929.587    21858465.158   116928028.306 6      3929.587    21858476.015    90944060.430 7      3056.345    21858476.620    90944060.435 7      3056.345
G25  20480684.672   107626710.593 8      5977.902    20480684.137   107626710.588 8      5977.902    20480692.878    83864966.028 8      4658.106    20480694.140    83865005.027 8      4658.106
R20  19417611.399   103834692.122 7      7836.712    19417611.186   103834692.114 7      7836.712    19417622.870    80760359.548 7      6095.221    19417623.280    80760362.550 7      6095.221
G29  20760007.020   109094562.069 8      7463.495    20760005.145   109094562.069 8      7463.495    20760010.316    85008748.121 8      5815.710    20760012.980    85008772.119 8      5815.710
R09  19872625.930   106118700.136 8      5274.985    19872626.204   106118700.115 8      5274.985    19872635.937    82536802.091 8      4102.766    19872635.720    82536802.086 8      4102.766
R10  19550641.884   104215910.257 8      8744.433    19550641.355   104215910.238 8      8744.433
G28  21859935.411   114874724.860 7      7248.486    21859935.095   114874724.851 6      7248.486    21859941.854    89512773.106 6      5648.171    21859942.540    89512799.111 8      5648.171
G12  22551838.566   118510691.500 7      4698.883    22551838.175   118510691.495 7      4698.883    22551844.243    92345988.239 7      3661.468    22551846.720    92346023.243 7      3661.468
G18  22713802.025   119361836.138 7     10511.554    22713802.314   119361836.130 6     10511.554    22713810.213    93009227.194 6      8190.821    22713810.820    93009261.198 8      8190.821
G31  23013781.813   120938234.180 7      8998.053    23013781.658   120938234.187 5      8998.053    23013787.578    94237585.757 5      7011.470    23013789.040    94237612.757 7      7011.470
G20  23312340.029   122507165.821 7      7220.521    23312338.901   122507165.822 5      7220.521    23312347.941    95460160.996 5      5626.380
R21  22671856.150   121321691.837 8     10976.756    22671857.083   121321691.853 8     10976.756    22671868.731    94361371.253 7      8537.477    22671868.960    94361375.264 7      8537.477
> 2024 05 02 08 32 45.0000000  0 13
G05  23230227.822   122075679.718 7      9329.729    23230224.446   122075679.705 6      9329.729    23230236.707    95123946.050 7      7269.918    23230237.840    95123953.062 7      7269.918
R19  21854791.994   116908379.863 7      3929.546    21854792.384   116908379.868 6      3929.546    21854803.182    90928778.276 7      3056.314    21854803.600    90928778.277 7      3056.314
G25  20474997.482   107596824.437 8      5976.452    20474996.937   107596824.431 8      5976.452    20475005.754    83841678.096 8      4656.975    20475006.920    83841717.099 8      4656.975
R20  19410284.935   103795515.297 7      7833.958    19410285.134   103795515.293 7      7833.958    19410296.454    80729888.686 7      6093.078    19410297.240    80729891.685 7      6093.078
G29  20752906.199   109057246.331 8      7462.761    20752904.317   109057246.329 8      7462.761    20752909.467    84979670.915 8      5815.139    20752911.860    84979694.917 8      5815.139
R09  19867688.066   106092331.262 8      5272.477    19867688.118   106092331.240 8      5272.477    19867697.823    82516292.951 8      4100.815    19867697.680    82516292.949 8      4100.815
R10  19542440.974   104172194.576 8      8741.798    19542440.624   104172194.558 8      8741.798
G28  21853039.699   114838488.182 7      7246.050    21853039.699   114838488.181 6      7246.050    21853046.188    89484536.739 6      5646.273    21853046.920    89484562.745 8      5646.273
G12  22547367.837   118487198.193 7      4698.281    22547367.374   118487198.191 7      4698.281    22547373.755    92327681.741 7      3660.998    22547375.940    92327716.734 7      3660.998
G18  22703801.082   119309280.384 7     10510.729    22703801.008   119309280.380 6     10510.729    22703809.443    92968274.670 6      8190.178    22703810.000    92968308.672 8      8190.178
G31  23005221.524   120893248.646 7      8996.085    23005220.751   120893248.638 5      8996.085    23005227.486    94202532.079 5      7009.936    23005228.640    94202559.082 7      7009.936
G20  23305470.838   122471068.238 7      7218.471    23305469.481   122471068.239 5      7218.471    23305478.981    95432033.018 5      5624.782
R21  22661600.380   121266810.319 8     10975.808    22661600.504   121266810.336 8     10975.808    22661612.723    94318685.640 7      8536.740    22661613.300    94318689.646 7      8536.740
> 2024 05 02 08 32 50.0000000  0 13
G05  23221351.461   122029034.730 7      9328.120    23221347.877   122029034.725 7      9328.120    23221360.741    95087599.313 7      7268.665    23221361.720    95087606.320 7      7268.665
R19  21851119.007   116888731.875 7      3929.473    21851118.953   116888731.889 6      3929.473    21851130.368    90913496.488 7      3056.257    21851130.600    90913496.486 7      3056.257
G25  20469311.772   107566945.621 8      5974.925    20469311.151   107566945.620 8      5974.925    20469319.847    83818395.894 8      4655.786    20469321.340    83818434.897 8      4655.786
R20  19402960.863   103756351.764 7      7831.363    19402961.442   103756351.770 7      7831.363    19402972.709    80699428.168 7      6091.060    19402973.500    80699431.168 7      6091.060
G29  20745805.754   109019934.062 8      7462.060    20745803.896   109019934.061 8      7462.060    20745809.259    84950596.423 8      5814.592    20745811.600    84950620.427 8      5814.592
R09  19862752.308   106065975.406 8      5269.758    19862752.288   106065975.389 8      5269.758    19862762.312    82495793.935 8      4098.700    19862762.200    82495793.932 8      4098.700
R10  19534242.252   104128492.338 8      8739.075    19534242.220   104128492.317 8      8739.075
G28  21846146.537   114802263.764 7      7243.574    21846146.470   114802263.758 6      7243.574    21846153.493    89456309.904 6      5644.343    21846153.800    89456335.905 8      5644.343
G12  22542897.779   118463708.205 7      4697.602    22542897.331   118463708.203 7      4697.602    22542903.765    92309377.837 7      3660.469    22542905.900    92309412.835 7      3660.469
G18  22693800.653   119256728.331 7     10509.970    22693800.226   119256728.328 6     10509.970    22693809.322    92927325.042 6      8189.587    22693809.820    92927359.044 8      8189.587
G31  22996663.109   120848273.285 7      8994.035    22996662.239   120848273.287 5      8994.035    22996669.257    94167486.344 5      7008.339    22996669.940    94167513.351 7      7008.339
G20  23298603.841   122434981.335 7      7216.177    23298602.452   122434981.342 5      7216.177    23298611.959    95403913.345 5      5622.995
R21  22651345.135   121211933.264 8     10974.840    22651344.723   121211933.287 8     10974.840    22651357.661    94276003.497 7      8535.987    22651357.940    94276007.496 7      8535.987
> 2024 05 02 08 32 55.0000000  0 13
G05  23212476.692   121982396.671 7      9326.779    23212473.184   121982396.671 7      9326.779    23212485.444    95051257.997 7      7267.620    23212486.680    95051265.003 7      7267.620
R19  21847446.313   116869084.226 7      3929.390    21847446.781   116869084.243 6      3929.390    21847457.115    90898214.959 7      3056.192    21847457.780    90898214.957 7      3056.192
G25  20463627.437   107537074.030 8      5973.537    20463626.820   107537074.030 8      5973.537    20463635.434    83795119.325 8      4654.704    20463636.680    83795158.327 8      4654.704
R20  19395639.634   103717201.681 7      7828.615    19395639.763   103717201.686 7      7828.615    19395651.723    80668978.095 7      6088.923    19395652.360    80668981.097 7      6088.923
G29  20738706.198   108982625.221 8      7461.367    20738704.178   108982625.219 8      7461.367    20738709.675    84921524.591 8      5814.052    20738712.040    84921548.594 8      5814.052
R09  19857819.240   106039632.437 8      5267.264    19857818.944   106039632.416 8      5267.264    19857829.159    82475304.942 8      4096.761    19857829.000    82475304.938 8      4096.761
R10  19526046.482   104084803.545 8      8736.416    19526046.295   104084803.529 8      8736.416
G28  21839255.482   114766051.477 7      7241.267    21839255.184   114766051.480 6      7241.267    21839262.101    89428092.531 6      5642.545    21839262.860    89428118.539 8      5642.545
G12  22538428.618   118440221.438 7      4697.061    22538428.289   118440221.436 7      4697.061    22538434.333    92291076.438 7      3660.048    22538437.080    92291111.436 7      3660.048
G18  22683800.938   119204179.933 7     10509.376    22683800.900   119204179.932 6     10509.376    22683809.487    92886378.244 6      8189.124    22683810.100    92886412.247 8      8189.124
G31  22988106.331   120803308.055 7      8992.019    22988105.480   120803308.051 5      8992.019    22988112.267    94132448.509 5      7006.768    22988112.960    94132475.514 7      7006.768
G20  23291738.843   122398904.935 7      7214.282    23291737.549   122398904.934 5      7214.282    23291745.929    95375801.860 5      5621.519
R21  22641090.727   121157060.564 8     10974.090    22641089.966   121157060.589 8     10974.090    22641103.715    94233324.751 7      8535.404    22641103.600    94233328.749 7      8535.404
> 2024 05 02 08 33  0.0000000  0 13
G05  23203603.566   121935766.362 7      9325.355    23203600.318   121935766.362 7      9325.355    23203612.038    95014922.701 7      7266.511    23203613.740    95014929.702 7      7266.511
R19  21843773.154   116849437.683 7      3929.330    21843773.935   116849437.690 6      3929.330    21843784.620    90882934.283 7      3056.145    21843784.880    90882934.287 7      3056.145
G25  20457944.408   107507210.406 8      5972.031    20457943.992   107507210.404 8      5972.031    20457952.549    83771848.960 8      4653.530    20457953.860    83771887.966 8      4653.530
R20  19388320.999   103678065.655 7      7825.973    19388320.971   103678065.650 7      7825.973    19388332.679    80638538.951 7      6086.868    19388333.580    80638541.956 7      6086.868
G29  20731607.175   108945320.458 8      7460.701    20731605.148   108945320.458 8      7460.701    20731610.840    84892455.937 8      5813.533    20731613.260    84892479.939 8      5813.533
R09  19852888.784   106013303.056 9      5264.704    19852888.317   106013303.034 8      5264.704    19852898.450    82454826.516 8      4094.770    19852898.200    82454826.513 8      4094.770
R10  19517853.526   104041129.049 8      8733.520    19517852.931   104041129.034 8      8733.520
G28  21832367.094   114729852.108 7      7238.704    21832367.126   114729852.106 6      7238.704    21832373.540    89399885.216 6      5640.549    21832374.560    89399911.222 8      5640.549
G12  22533959.988   118416738.608 8      4696.302    22533959.811   118416738.605 7      4696.302    22533965.609    92272778.109 7      3659.456    22533968.460    92272813.111 7      3659.456
G18  22673802.421   119151635.915 7     10508.534    22673801.618   119151635.911 6     10508.534    22673810.890    92845434.875 6      8188.468    22673811.340    92845468.875 8      8188.468
G31  22979551.752   120758353.663 7      8989.818    22979551.241   120758353.655 5      8989.818    22979558.065    94097419.120 5      7005.053    22979559.300    94097446.130 7      7005.053
G20  23284875.758   122362839.875 7      7212.024    23284874.312   122362839.880 5      7212.024    23284883.405    95347699.225 5      5619.759
R21  22630837.475   121102193.012 8     10973.196    22630837.059   121102193.038 8     10973.196    22630850.345    94190649.996 7      8534.708    22630850.340    94190653.995 7      8534.708
> 2024 05 02 08 33  5.0000000  0 13
G05  23194731.418   121889142.943 7      9323.933    23194728.844   121889142.949 7      9323.933    23194740.065    94978592.792 7      7265.402    23194741.820    94978599.796 7      7265.402
R19  21840100.984   116829791.387 6      3929.157    21840100.944   116829791.399 6      3929.157    21840111.930    90867653.820 7      3056.011    21840112.200    90867653.821 7      3056.011
G25  20452262.798   107477353.880 8      5970.471    20452262.243   107477353.878 8      5970.471    20452270.962    83748584.120 8      4652.315    20452272.380    83748623.126 8      4652.315
R20  19381005.277   103638942.742 6      7823.282    19381004.630   103638942.737 6      7823.282    19381016.561    80608110.012 7      6084.775    19381017.260    80608113.011 7      6084.775
G29  20724509.108   108908018.934 8      7459.874    20724506.852   108908018.934 8      7459.874    20724512.414    84863389.811 8      5812.889    20724514.860    84863413.814 8      5812.889
R09  19847960.430   105986986.365 9      5261.956    19847959.984   105986986.346 8      5261.956    19847970.290    82434357.962 8      4092.632    19847970.060    82434357.962 8      4092.632
R10  19509662.692   103997467.794 8      8730.853    19509661.949   103997467.777 8      8730.853
G28  21825481.118   114693664.725 7      7236.244    21825480.842   114693664.726 6      7236.244    21825487.474    89371687.258 6      5638.632    21825488.000    89371713.255 8      5638.632
G12  22529491.872   118393258.867 8      4695.549    22529491.860   118393258.865 7      4695.549    22529497.688    92254482.197 7      3658.869    22529500.360    92254517.201 7      3658.869
G18  22663804.178   119099095.423 7     10507.663    22663804.050   119099095.422 6     10507.663    22663813.003    92804494.245 6      8187.789    22663813.200    92804528.245 8      8187.789
G31  22970999.305   120713409.240 7      8987.872    22970998.789   120713409.236 6      8987.872    22971005.812    94062397.488 6      7003.537    22971006.220    94062424.497 7      7003.537
G20  23278014.571   122326785.164 7      7209.864    23278012.781   122326785.160 5      7209.864    23278022.052    95319604.650 5      5618.076
R21  22620584.996   121047329.707 8     10972.147    22620585.234   121047329.732 8     10972.147    22620597.980    94147978.531 7      8533.892    22620597.420    94147982.531 7      8533.892
> 2024 05 02 08 33 10.0000000  0 14
G05  23185860.868   121842527.105 7      9322.380    23185858.461   121842527.103 7      9322.380    23185869.430    94942268.789 7      7264.192    23185870.680    94942275.794 7      7264.192
R19  21836428.493   116810146.101 7      3929.076    21836428.743   116810146.109 6      3929.076    21836439.481    90852374.106 7      3055.948    21836439.880    90852374.109 7      3055.948
G25  20446582.793   107447505.090 8      5969.005    20446582.202   107447505.083 8      5969.005    20446591.144    83725325.312 8      4651.173    20446592.500    83725364.318 8      4651.173
R20  19373691.784   103599833.553 7      7820.387    19373691.190   103599833.561 7      7820.387    19373703.025    80577691.766 7      6082.523    19373703.800    80577694.761 7      6082.523
G29  20717411.541   108870721.321 8      7459.136    20717409.375   108870721.319 8      7459.136    20717415.029    84834326.728 8      5812.314    20717417.680    84834350.730 8      5812.314
R09  19843034.508   105960683.116 8      5259.243    19843034.193   105960683.100 8      5259.243    19843044.557    82413899.869 8      4090.522    19843044.240    82413899.867 8      4090.522
R10  19501474.466   103953820.569 8      8727.991    19501473.957   103953820.548 8      8727.991
G28  21818597.023   114657490.000 8      7233.672    21818597.109   114657489.993 6      7233.672    21818603.445    89343499.148 6      5636.628    21818604.180    89343525.152 8      5636.628
G12  22525024.600   118369782.842 7      4694.802    22525024.270   118369782.842 7      4694.802    22525030.477    92236189.159 7      3658.287    22525033.080    92236224.162 7      3658.287
R11  23047842.012   123160682.515 6     11534.755
G18  22653806.987   119046559.092 8     10506.840    22653807.064   119046559.087 6     10506.840    22653815.715    92763556.849 6      8187.148    22653815.640    92763590.848 8      8187.148
G31  22962448.698   120668475.449 7      8985.761    22962448.746   120668475.448 6      8985.761    22962454.921    94027384.135 6      7001.891    22962456.060    94027411.141 7      7001.891
G20  23271155.790   122290741.519 7      7207.663    23271154.090   122290741.518 5      7207.663    23271162.919    95291518.663 5      5616.361
R21  22610333.331   120992471.316 8     10971.130    22610333.777   120992471.349 8     10971.130    22610346.441    94105310.915 7      8533.101    22610345.860    94105314.921 7      8533.101
> 2024 05 02 08 33 15.0000000  0 14
G05  23176991.416   121795918.462 7      9320.877    23176989.434   121795918.460 7      9320.877    23177000.342    94905950.394 7      7263.021    23177001.460    94905957.403 7      7263.021
R19  21832756.078   116790501.368 7      3928.807    21832756.481   116790501.374 6      3928.807    21832766.914    90837094.836 7      3055.739    21832767.640    90837094.839 7      3055.739
G25  20440904.494   107417663.688 8      5967.497    20440903.762   107417663.683 8      5967.497    20440912.457    83702072.259 8      4649.997    20440913.920    83702111.263 8      4649.997
R20  19366380.381   103560737.700 7      7817.840    19366380.347   103560737.706 7      7817.840    19366391.926    80547283.881 7      6080.542    19366392.300    80547286.881 7      6080.542
G29  20710314.763   108833427.239 8      7458.365    20710312.520   108833427.244 8      7458.365    20710318.195    84805266.401 8      5811.713    20710320.480    84805290.402 8      5811.713
R09  19838111.061   105934392.756 8      5256.662    19838111.109   105934392.742 8      5256.662    19838121.392    82393451.797 8      4088.515    19838121.060    82393451.792 8      4088.515
R10  19493288.664   103910187.013 8      8725.286    19493288.345   103910186.994 8      8725.286
G28  21811715.676   114621327.575 8      7231.227    21811715.168   114621327.571 6      7231.227    21811721.855    89315320.619 6      5634.722    21811722.660    89315346.620 8      5634.722
G12  22520557.753   118346310.157 7      4694.196    22520557.663   118346310.151 7      4694.196    22520563.674    92217898.739 7      3657.815    22520566.620    92217933.745 7      3657.815
R11  23037048.097   123103007.904 6     11534.985    23037047.084   123103007.919 5     11534.985    23037058.383    95746822.055 6      8971.655    23037059.440    95746828.017 6      8971.655
G18  22643810.138   118994026.616 8     10506.040    22643810.447   118994026.611 6     10506.040    22643818.599    92722622.463 6      8186.525    22643819.280    92722656.461 8      8186.525
G31  22953900.038   120623551.922 7      8983.674    22953899.242   120623551.925 6      8983.674    22953906.358    93992378.803 6      7000.265    22953907.300    93992405.814 7      7000.265
G20  23264298.846   122254708.562 7      7205.511    23264296.744   122254708.557 5      7205.511    23264306.502    95263441.052 5      5614.684
R21  22600082.560   120937617.498 8     10970.311    22600083.778   120937617.523 8     10970.311    22600095.482    94062646.869 7      8532.464    22600095.660    94062650.878 7      8532.464
> 2024 05 02 08 33 20.0000000  0 14
G05  23168123.649   121749317.870 7      9319.589    23168121.578   121749317.867 7      9319.589    23168132.790    94869638.248 7      7262.017    23168133.560    94869645.256 7      7262.017
R19  21829084.020   116770857.968 7      3928.868    21829083.829   116770857.972 6      3928.868    21829094.966    90821816.613 7      3055.787    21829095.700    90821816.618 7      3055.787
G25  20435227.368   107387830.493 8      5966.087    20435226.705   107387830.492 8      5966.087    20435235.508    83678825.605 8      4648.899    20435237.180    83678864.610 8      4648.899
R20  19359071.447   103521656.032 7      7815.184    19359072.075   103521656.041 6      7815.184    19359082.918    80516887.026 7      6078.477    19359084.040    80516890.028 7      6078.477
G29  20703218.697   108796137.496 8      7457.780    20703216.580   108796137.496 8      7457.780    20703222.160    84776209.454 8      5811.257    20703224.480    84776233.456 8      5811.257
R09  19833190.311   105908116.290 8      5254.159    19833190.509   105908116.278 8      5254.159    19833200.708    82373014.536 8      4086.568    19833200.220    82373014.534 8      4086.568
R10  19485106.029   103866567.773 8      8722.607    19485105.444   103866567.754 8      8722.607
G28  21804836.537   114585178.289 7      7228.749    21804836.494   114585178.282 6      7228.749    21804843.174    89287152.341 6      5632.791    21804843.700    89287178.340 8      5632.791
G12  22516092.073   118322841.692 7      4693.441    22516091.684   118322841.687 7      4693.441    22516097.841    92199611.601 7      3657.227    22516100.560    92199646.613 7      3657.227
R11  23026254.506   123045332.985 6     11535.170    23026253.301   123045332.982 5     11535.170    23026264.533    95701963.791 6      8971.799    23026265.760    95701969.760 6      8971.799
G18  22633814.650   118941498.798 7     10505.312    22633814.717   118941498.796 6     10505.312    22633822.947    92681691.704 6      8185.957    22633823.620    92681725.711 8      8185.957
G31  22945353.297   120578639.567 7      8981.543    22945352.571   120578639.570 6      8981.543    22945360.087    93957382.161 6      6998.605    22945360.600    93957409.175 7      6998.605
G20  23257444.110   122218687.175 7      7203.391    23257443.018   122218687.166 5      7203.391    23257451.969    95235372.426 5      5613.032
R21  22589832.647   120882769.129 8     10969.414    22589833.545   120882769.151 8     10969.414    22589845.912    94019987.025 7      8531.766    22589846.140    94019991.036 7      8531.766
> 2024 05 02 08 33 25.0000000  0 14
G05  23159257.144   121702724.507 7      9317.856    23159254.776   121702724.502 7      9317.856    23159266.170    94833331.748 7      7260.667    23159267.380    94833338.757 7      7260.667
R19  21825411.231   116751215.033 6      3928.514    21825411.483   116751215.037 6      3928.514    21825423.463    90806538.750 7      3055.511    21825423.540    90806538.754 7      3055.511
G25  20429551.720   107358004.678 8      5964.284    20429551.154   107358004.673 8      5964.284    20429560.008    83655584.700 8      4647.494    20429561.420    83655623.702 8      4647.494
R20  19351765.719   103482587.731 7      7812.252    19351765.739   103482587.732 6      7812.252    19351777.145    80486500.559 7      6076.196    19351778.140    80486503.564 7      6076.196
G29  20696123.373   108758851.251 8      7456.803    20696121.360   108758851.249 8      7456.803    20696126.689    84747155.228 8      5810.496    20696129.080    84747179.227 8      5810.496
R09  19828272.248   105881852.949 8      5251.244    19828272.334   105881852.933 8      5251.244    19828282.245    82352587.466 8      4084.301    19828281.980    82352587.466 8      4084.301
R10  19476925.970   103822962.238 8      8719.659    19476925.159   103822962.214 8      8719.659
G28  21797959.914   114549041.262 7      7226.077    21797959.719   114549041.259 6      7226.077    21797966.198    89258993.607 6      5630.709    21797966.500    89259019.608 8      5630.709
G12  22511626.652   118299376.514 7      4692.596    22511626.490   118299376.510 7      4692.596    22511632.584    92181327.025 7      3656.568    22511634.860    92181362.028 7      3656.568
R11  23015461.255   122987656.721 6     11535.272    23015461.025   122987656.727 5     11535.272    23015471.726    95657104.519 6      8971.878    23015472.000    95657110.496 6      8971.878
G18  22623819.742   118888974.794 8     10504.318    22623819.785   118888974.795 6     10504.318    22623827.702    92640763.937 6      8185.183    22623828.580    92640797.939 8      8185.183
G31  22936808.625   120533737.491 7      8979.337    22936808.363   120533737.494 6      8979.337    22936815.788    93922393.533 6      6996.886    22936816.220    93922420.538 7      6996.886
G20  23250591.590   122182676.433 7      7200.913    23250590.149   122182676.436 5      7200.913    23250599.564    95207312.108 5      5611.101
R21  22579583.729   120827925.320 8     10968.232    22579583.886   120827925.331 8     10968.232    22579596.903    93977330.730 7      8530.847    22579597.080    93977334.741 7      8530.847
> 2024 05 02 08 33 30.0000000  0 14
G05  23150392.048   121656139.403 7      9316.211    23150389.409   121656139.397 7      9316.211    23150401.420    94797031.673 7      7259.385    23150402.140    94797038.680 7      7259.385
R19  21821739.820   116731573.527 6      3928.053    21821740.127   116731573.538 6      3928.053    21821751.630    90791262.008 7      3055.153    21821751.980    90791262.012 7      3055.153
G25  20423877.639   107328187.244 8      5962.615    20423877.201   107328187.237 8      5962.615    20423885.848    83632350.320 8      4646.194    20423887.280    83632389.322 8      4646.194
R20  19344462.595   103443533.839 7      7809.351    19344462.740   103443533.843 6      7809.351    19344474.046    80456125.309 7      6073.940    19344474.940    80456128.311 7      6073.940
G29  20689028.894   108721569.521 8      7455.882    20689026.841   108721569.518 8      7455.882    20689032.180    84718104.523 8      5809.778    20689034.560    84718128.523 8      5809.778
R09  19823356.806   105855603.515 9      5248.513    19823356.902   105855603.500 8      5248.513    19823366.548    82332171.223 8      4082.177    19823366.140    82332171.222 8      4082.177
R10  19468748.040   103779371.268 8      8716.724    19468747.742   103779371.250 8      8716.724
G28  21791085.766   114512917.548 7      7223.417    21791086.041   114512917.543 6      7223.417    21791092.240    89230845.248 6      5628.637    21791093.020    89230871.250 8      5628.637
G12  22507162.569   118275915.702 7      4691.659    22507161.843   118275915.697 7      4691.659    22507167.911    92163045.848 7      3655.838    22507170.380    92163080.855 7      3655.838
R11  23004667.038   122929980.457 6     11535.025    23004667.943   122929980.440 6     11535.025    23004677.844    95612245.211 6      8971.686    23004678.440    95612251.193 6      8971.686
G18  22613825.395   118836455.690 7     10503.261    22613825.453   118836455.685 6     10503.261    22613833.823    92599839.967 6      8184.359    22613834.500    92599873.971 8      8184.359
G31  22928266.218   120488846.751 7      8977.018    22928265.986   120488846.757 6      8977.018    22928272.933    93887413.745 5      6995.079    22928273.380    93887440.742 7      6995.079
G20  23243741.398   122146677.431 7      7198.664    23243739.871   122146677.438 5      7198.664    23243749.242    95179260.952 5      5609.348
R21  22569335.847   120773087.101 8     10967.130    22569335.963   120773087.113 8     10967.130    22569348.800    93934678.807 7      8529.990    22569349.220    93934682.811 7      8529.990
> 2024 05 02 08 33 35.0000000  0 14
G05  23141528.704   121609562.060 7      9314.629    23141525.790   121609562.052 7      9314.629    23141538.002    94760737.656 7      7258.152    23141539.300    94760744.659 7      7258.152
R19  21818068.662   116711933.098 7      3927.910    21818068.889   116711933.113 6      3927.910    21818079.872    90775986.094 7      3055.041    21818080.480    90775986.098 7      3055.041
G25  20418205.197   107298377.750 8      5961.130    20418204.508   107298377.746 8      5961.130    20418213.409    83609122.138 8      4645.037    20418214.660    83609161.141 8      4645.037
R20  19337161.582   103404493.880 7      7806.581    19337162.168   103404493.887 7      7806.581    19337173.864    80425760.900 7      6071.785    19337174.320    80425763.895 7      6071.785
G29  20681935.206   108684291.838 8      7455.143    20681933.342   108684291.833 8      7455.143    20681938.643    84689056.974 8      5809.202    20681941.020    84689080.975 8      5809.202
R09  19818443.638   105829367.667 9      5245.766    19818443.646   105829367.652 8      5245.766    19818453.340    82311765.551 8      4080.041    19818453.080    82311765.550 8      4080.041
R10  19460573.037   103735794.745 8      8713.840    19460572.967   103735794.724 8      8713.840
G28  21784214.125   114476806.693 7      7220.881    21784213.901   114476806.692 6      7220.881    21784220.618    89202706.916 6      5626.661    21784221.040    89202732.918 8      5626.661
G12  22502698.644   118252458.800 7      4690.987    22502698.306   118252458.795 7      4690.987    22502704.577    92144767.723 7      3655.315    22502706.960    92144802.728 7      3655.315
R11  22993873.550   122872303.482 6     11535.623    22993873.909   122872303.465 6     11535.623    22993884.020    95567385.349 6      8972.151    22993884.560    95567391.328 6      8972.151
G18  22603832.371   118783941.011 7     10502.464    22603832.249   118783941.007 6     10502.464    22603840.241    92558919.444 6      8183.738    22603841.200    92558953.451 8      8183.738
G31  22919726.208   120443966.951 7      8974.692    22919725.417   120443966.951 6      8974.692    22919732.815    93852442.473 6      6993.267    22919733.340    93852469.476 7      6993.267
G20  23236892.922   122110689.709 7      7196.365    23236891.768   122110689.706 5      7196.365    23236900.860    95151218.578 5      5607.557
R21  22559089.138   120718254.140 8     10966.068    22559088.335   120718254.164 8     10966.068    22559101.999    93892030.964 7      8529.164    22559102.160    93892034.969 7      8529.164
> 2024 05 02 08 33 40.0000000  0 14
G05  23132666.859   121562992.321 7      9313.303    23132663.924   121562992.316 7      9313.303    23132675.915    94724449.570 7      7257.119    23132677.120    94724456.570 7      7257.119
R19  21814397.019   116692293.435 7      3928.002    21814397.145   116692293.432 6      3928.002    21814408.657    90760710.759 7      3055.113    21814409.340    90760710.762 7      3055.113
G25  20412534.063   107268575.901 8      5959.723    20412533.470   107268575.895 8      5959.723    20412542.140    83585899.907 8      4643.940    20412543.680    83585938.912 8      4643.940
R20  19329863.879   103365467.656 7      7803.870    19329864.293   103365467.658 7      7803.870    19329875.668    80395407.161 7      6069.676    19329875.860    80395410.160 7      6069.676
G29  20674842.220   108647017.921 8      7454.415    20674840.221   108647017.921 8      7454.415    20674845.574    84660012.366 8      5808.635    20674848.060    84660036.368 8      5808.635
R09  19813532.839   105803145.002 8      5243.322    19813533.074   105803144.983 8      5243.322    19813542.693    82291370.130 8      4078.139    19813542.520    82291370.126 8      4078.139
R10  19452401.225   103692232.238 8      8711.158    19452400.994   103692232.222 8      8711.158
G28  21777345.013   114440708.377 7      7218.517    21777345.173   114440708.377 6      7218.517    21777351.546    89174578.349 6      5624.818    21777352.000    89174604.349 8      5624.818
G12  22498235.682   118229005.462 8      4690.383    22498235.343   118229005.460 7      4690.383    22498241.132    92126492.364 7      3654.844    22498244.180    92126527.366 7      3654.844
R11  22983080.248   122814625.619 6     11535.548    22983081.164   122814625.616 6     11535.548    22983090.293    95522524.815 6      8972.093    22983089.980    95522530.800 6      8972.093
G18  22593839.692   118731430.472 7     10501.699    22593839.334   118731430.478 6     10501.699    22593847.915    92518002.152 6      8183.142    22593848.520    92518036.157 8      8183.142
G31  22911187.871   120399097.676 7      8972.827    22911187.758   120399097.678 6      8972.827    22911194.271    93817479.400 6      6991.813    22911195.200    93817506.411 7      6991.813
G20  23230046.483   122074712.919 7      7194.349    23230045.195   122074712.925 5      7194.349    23230054.883    95123184.713 5      5605.986
R21  22548843.169   120663425.954 8     10965.199    22548842.713   120663425.980 8     10965.199    22548855.909    93849386.851 7      8528.488    22548856.280    93849390.854 7      8528.488
> 2024 05 02 08 33 45.0000000  0 14
G05  23123806.277   121516429.955 7      9311.613    23123803.197   121516429.954 7      9311.613    23123815.174    94688167.209 7      7255.803    23123815.960    94688174.216 7      7255.803
R19  21810725.673   116672654.207 7      3927.684    21810725.556   116672654.209 6      3927.684    21810737.191    90745435.757 7      3054.865    21810737.760    90745435.761 7      3054.865
G25  20406864.232   107238781.460 8      5958.045    20406863.803   107238781.456 8      5958.045    20406872.467    83562683.454 8      4642.633    20406873.960    83562722.457 8      4642.633
R20  19322568.991   103326454.796 7      7801.160    19322568.490   103326454.804 7      7801.160    19322579.662    80365063.829 7      6067.569    19322580.400    80365066.831 7      6067.569
G29  20667749.939   108609747.539 8      7453.656    20667747.776   108609747.538 8      7453.656    20667753.279    84630970.497 8      5808.044    20667755.620    84630994.497 8      5808.044
R09  19808624.660   105776935.343 8      5240.525    19808624.754   105776935.323 8      5240.525    19808634.597    82270984.820 8      4075.964    19808634.300    82270984.816 8      4075.964
R10  19444231.546   103648683.321 8      8708.350    19444231.348   103648683.298 8      8708.350
G28  21770478.046   114404622.372 7      7215.919    21770477.938   114404622.373 6      7215.919    21770484.416    89146459.371 6      5622.794    21770485.360    89146485.371 8      5622.794
G12  22493773.556   118205555.521 8      4689.596    22493773.073   118205555.515 7      4689.596    22493779.269    92108219.667 7      3654.230    22493781.900    92108254.668 7      3654.230
R11  22972286.658   122756946.638 6     11535.841    22972287.238   122756946.614 6     11535.841    22972296.342    95477663.373 6      8972.321    22972295.540    95477669.355 6      8972.321
G18  22583848.217   118678923.821 7     10500.938    22583847.998   118678923.818 6     10500.938    22583856.447    92477087.891 6      8182.549    22583856.960    92477121.892 8      8182.549
G31  22902651.429   120354238.758 7      8970.772    22902651.299   120354238.748 6      8970.772    22902657.915    93782524.402 6      6990.212    22902658.860    93782551.407 7      6990.212
G20  23223202.579   122038746.919 7      7191.999    23223201.168   122038746.932 5      7191.999    23223210.946    95095159.264 5      5604.155
R21  22538598.407   120608602.442 8     10964.141    22538598.201   120608602.476 8     10964.141    22538610.866    93806746.363 7      8527.665    22538611.000    93806750.364 7      8527.665
> 2024 05 02 08 33 50.0000000  0 14
G05  23114947.765   121469875.170 7      9310.161    23114944.878   121469875.173 7      9310.161    23114955.816    94651890.776 7      7254.671    23114956.840    94651897.791 7      7254.671
R19  21807054.610   116653015.723 7      3927.574    21807054.533   116653015.731 6      3927.574    21807066.091    90730161.366 7      3054.780    21807066.600    90730161.371 7      3054.780
G25  20401195.985   107208994.717 8      5956.611    20401195.544   107208994.712 8      5956.611    20401204.182    83539472.996 8      4641.515    20401205.220    83539511.997 8      4641.515
R20  19315276.102   103287455.680 7      7798.400    19315275.149   103287455.692 7      7798.400    19315286.626    80334731.184 7      6065.422    19315287.380    80334734.186 7      6065.422
G29  20660658.374   108572480.999 8      7452.885    20660656.286   108572480.996 8      7452.885    20660661.732    84601931.629 8      5807.443    20660664.000    84601955.632 8      5807.443
R09  19803718.799   105750739.022 9      5237.890    19803718.926   105750739.002 8      5237.890    19803728.853    82250609.890 8      4073.914    19803728.600    82250609.888 8      4073.914
R10  19436064.587   103605148.478 8      8705.477    19436064.198   103605148.463 8      8705.477
G28  21763613.636   114368548.980 8      7213.546    21763613.971   114368548.975 6      7213.546    21763620.388    89118350.228 6      5620.945    21763620.460    89118376.225 8      5620.945
G12  22489311.962   118182109.254 8      4688.873    22489311.378   118182109.247 7      4688.873    22489317.419    92089949.822 7      3653.667    22489320.400    92089984.826 7      3653.667
R11  22961492.109   122699266.734 6     11535.909    22961493.456   122699266.740 6     11535.909    22961502.315    95432801.291 6      8972.374    22961501.620    95432807.281 6      8972.374
G18  22573857.198   118626421.432 7     10500.021    22573857.044   118626421.428 6     10500.021    22573865.714    92436176.948 6      8181.834    22573866.300    92436210.945 8      8181.834
G31  22894117.082   120309390.543 7      8968.632    22894116.835   120309390.541 6      8968.632    22894123.758    93747577.745 6      6988.544    22894124.580    93747604.750 7      6988.544
G20  23216360.690   122002791.939 7      7189.871    23216360.059   122002791.949 5      7189.871    23216368.388    95067142.392 5      5602.497
R21  22528354.106   120553783.795 8     10963.234    22528354.783   120553783.832 8     10963.234    22528366.460    93764109.645 7      8526.960    22528366.580    93764113.638 7      8526.960
> 2024 05 02 08 33 55.0000000  0 14
G05  23106090.105   121423328.229 7      9308.626    23106087.342   121423328.233 7      9308.626    23106098.211    94615620.452 7      7253.475    23106099.200    94615627.455 7      7253.475
R19  21803384.011   116633378.030 7      3927.556    21803383.341   116633378.033 6      3927.556    21803395.307    90714887.579 7      3054.766    21803395.800    90714887.585 7      3054.766
G25  20395529.205   107179215.838 8      5955.101    20395528.685   107179215.833 8      5955.101    20395537.516    83516268.663 8      4640.339    20395538.720    83516307.664 8      4640.339
R20  19307985.401   103248470.357 7      7795.705    19307984.285   103248470.365 6      7795.705    19307996.206    80304409.263 7      6063.326    19307997.100    80304412.260 7      6063.326
G29  20653567.548   108535218.426 8      7452.206    20653565.505   108535218.420 8      7452.206    20653571.014    84572895.852 8      5806.914    20653573.520    84572919.856 8      5806.914
R09  19798815.693   105724556.150 8      5235.174    19798815.787   105724556.126 8      5235.174    19798825.723    82230245.418 8      4071.802    19798825.620    82230245.417 8      4071.802
R10  19427900.236   103561627.936 8      8702.656    19427899.753   103561627.919 8      8702.656
G28  21756751.384   114332488.371 8      7210.861    21756751.176   114332488.370 6      7210.861    21756758.249    89090251.046 6      5618.853    21756758.720    89090277.044 8      5618.853
G12  22484850.710   118158666.776 7      4688.153    22484850.379   118158666.770 7      4688.153    22484856.598    92071682.939 7      3653.106    22484858.980    92071717.946 7      3653.106
R11  22950697.131   122641586.230 6     11536.203    22950700.350   122641586.225 6     11536.203    22950707.968    95387938.679 6      8972.602    22950707.160    95387944.685 6      8972.602
G18  22563867.200   118573923.409 7     10499.159    22563867.020   118573923.406 6     10499.159    22563875.719    92395269.408 6      8181.163    22563876.240    92395303.407 8      8181.163
G31  22885585.055   120264553.179 7      8966.484    22885584.426   120264553.181 6      8966.484    22885591.574    93712639.544 6      6986.871    22885592.100    93712666.543 7      6986.871
G20  23209520.733   121966848.201 7      7187.567    23209519.822   121966848.199 5      7187.567    23209529.364    95039134.278 5      5600.701
R21  22518110.645   120498970.325 8     10962.151    22518111.871   120498970.353 8     10962.151    22518123.300    93721476.968 7      8526.117    22518123.020    93721480.967 7      8526.117
> 2024 05 02 08 34  0.0000000  0 14
G05  23097233.893   121376788.612 7      9307.070    23097231.535   121376788.614 7      9307.070    23097242.167    94579355.826 7      7252.263    23097243.340    94579362.823 7      7252.263
R19  21799713.115   116613740.665 7      3927.357    21799712.596   116613740.676 6      3927.357    21799724.153    90699614.047 7      3054.611    21799724.740    90699614.051 7      3054.611
G25  20389864.032   107149444.346 8      5953.401    20389863.469   107149444.344 8      5953.401    20389872.246    83493070.090 8      4639.014    20389873.640    83493109.093 8      4639.014
R20  19300696.578   103209498.254 7      7792.910    19300696.686   103209498.263 6      7792.910    19300708.278    80274097.629 7      6061.152    19300709.020    80274100.628 7      6061.152
G29  20646477.347   108497959.360 8      7451.288    20646475.358   108497959.360 8      7451.288    20646480.828    84543862.807 8      5806.198    20646482.920    84543886.812 8      5806.198
R09  19793915.047   105698386.208 9      5232.554    19793914.892   105698386.184 8      5232.554    19793925.047    82209891.003 8      4069.764    19793924.800    82209891.005 8      4069.764
R10  19419738.496   103518121.134 8      8699.846    19419737.804   103518121.116 8      8699.846
G28  21749891.659   114296440.026 7      7208.282    21749891.778   114296440.027 6      7208.282    21749898.115    89062161.417 6      5616.843    21749898.840    89062187.421 8      5616.843
G12  22480390.243   118135227.616 7      4687.429    22480390.036   118135227.612 7      4687.429    22480396.260    92053418.637 7      3652.542    22480399.000    92053453.643 7      3652.542
R11  22939904.119   122583904.667 6     11536.354    22939905.128   122583904.646 6     11536.354    22939913.785    95343075.263 6      8972.720    22939913.960    95343081.279 6      8972.720
G18  22553877.697   118521429.295 7     10498.312    22553877.658   118521429.298 6     10498.312    22553886.495    92354364.919 6      8180.502    22553887.200    92354398.914 8      8180.502
G31  22877054.545   120219726.174 7      8964.279    22877054.370   120219726.171 6      8964.279    22877061.605    93677709.422 6      6985.153    22877061.820    93677736.433 7      6985.153
G20  23202683.283   121930915.151 7      7185.387    23202681.747   121930915.150 5      7185.387    23202691.457    95011134.523 5      5599.003
R21  22507868.429   120444161.499 8     10961.177    22507869.689   120444161.520 8     10961.177    22507881.235    93678847.900 7      8525.360    22507880.360    93678851.904 7      8525.360
> 2024 05 02 08 34  5.0000000  0 14
G05  23088379.089   121330257.100 8      9305.461    23088376.911   121330257.101 7      9305.461    23088387.488    94543097.513 7      7251.009    23088388.740    94543104.505 7      7251.009
R19  21796042.288   116594104.617 6      3927.017    21796042.223   116594104.622 6      3927.017    21796053.424    90684341.542 7      3054.346    21796053.960    90684341.546 7      3054.346
G25  20384200.169   107119681.007 8      5951.732    20384199.578   107119681.004 8      5951.732    20384208.583    83469877.867 8      4637.714    20384209.800    83469916.873 8      4637.714
R20  19293411.515   103170540.231 7      7790.133    19293411.794   103170540.234 6      7790.133    19293423.052    80243796.935 7      6058.992    19293423.480    80243799.936 7      6058.992
G29  20639387.956   108460704.560 8      7450.419    20639386.112   108460704.560 8      7450.419    20639391.486    84514833.089 8      5805.521    20639393.820    84514857.090 8      5805.521
R09  19789016.833   105672230.058 9      5229.768    19789016.722   105672230.034 8      5229.768    19789026.636    82189547.309 8      4067.598    19789026.500    82189547.308 8      4067.598
R10  19411579.102   103474628.761 8      8696.979    19411578.784   103474628.743 8      8696.979
G28  21743034.235   114260404.755 7      7205.669    21743034.686   114260404.755 6      7205.669    21743041.074    89034081.979 6      5614.807    21743041.420    89034107.979 8      5614.807
G12  22475930.575   118111792.593 7      4686.461    22475930.591   118111792.587 7      4686.461    22475936.770    92035157.560 7      3651.788    22475939.440    92035192.568 7      3651.788
R11  22929110.717   122526222.817 6     11536.308    22929110.334   122526222.807 6     11536.308    22929118.873    95298211.615 6      8972.684    22929118.720    95298217.633 6      8972.684
G18  22543889.529   118468939.917 7     10497.269    22543889.363   118468939.910 6     10497.269    22543897.982    92313464.119 6      8179.690    22543898.540    92313498.111 8      8179.690
G31  22868526.077   120174910.348 7      8961.909    22868526.016   120174910.352 6      8961.909    22868533.087    93642787.999 6      6983.306    22868533.720    93642815.007 7      6983.306
G20  23195847.377   121894993.600 7      7183.045    23195846.040   121894993.606 5      7183.045    23195855.961    94983143.719 5      5597.178
R21  22497627.138   120389358.115 8     10960.068    22497628.866   120389358.126 8     10960.068    22497639.890    93636223.065 7      8524.497    22497638.940    93636227.075 7      8524.497
> 2024 05 02 08 34 10.0000000  0 14
G05  23079525.747   121283733.378 7      9303.852    23079523.236   121283733.374 7      9303.852    23079534.378    94506845.277 7      7249.754    23079535.320    94506852.273 7      7249.754
R19  21792371.162   116574469.373 7      3926.823    21792371.462   116574469.370 6      3926.823    21792382.723    90669069.654 7      3054.196    21792383.000    90669069.655 7      3054.196
G25  20378538.074   107089925.544 8      5950.124    20378537.240   107089925.542 8      5950.124    20378546.243    83446691.787 8      4636.460    20378547.800    83446730.793 8      4636.460
R20  19286128.703   103131596.088 7      7787.245    19286129.300   103131596.092 6      7787.245    19286140.317    80213507.045 7      6056.746    19286140.840    80213510.045 7      6056.746
G29  20632299.462   108423453.758 8      7449.608    20632297.491   108423453.757 8      7449.608    20632302.918    84485806.481 8      5804.889    20632305.060    84485830.485 8      5804.889
R09  19784121.173   105646087.311 8      5227.037    19784120.756   105646087.291 8      5227.037    19784130.974    82169214.050 8      4065.473    19784130.620    82169214.048 8      4065.473
R10  19403422.749   103431150.715 8      8694.064    19403422.529   103431150.699 8      8694.064
G28  21736179.652   114224382.269 8      7203.057    21736179.442   114224382.267 6      7203.057    21736186.178    89006012.491 6      5612.771    21736186.660    89006038.491 8      5612.771
G12  22471472.075   118088361.351 7      4685.745    22471471.646   118088361.344 7      4685.745    22471477.805    92016899.432 7      3651.230    22471480.060    92016934.437 7      3651.230
R11  22918315.470   122468540.254 6     11536.840    22918315.061   122468540.237 6     11536.840    22918324.605    95253347.419 6      8973.098    22918325.100    95253353.454 6      8973.098
G18  22533901.771   118416454.957 7     10496.390    22533901.610   118416454.954 6     10496.390    22533910.325    92272566.749 6      8179.005    22533910.780    92272600.747 8      8179.005
G31  22860000.079   120130105.362 7      8959.706    22860000.019   120130105.364 6      8959.706    22860007.020    93607875.033 6      6981.589    22860007.820    93607902.041 7      6981.589
G20  23189013.924   121859083.268 7      7180.770    23189012.446   121859083.278 5      7180.770    23189022.417    94955161.622 5      5595.405
R21  22487386.534   120334559.908 8     10959.043    22487387.343   120334559.916 8     10959.043    22487399.667    93593602.255 7      8523.700    22487398.720    93593606.268 7      8523.700
> 2024 05 02 08 34 15.0000000  0 14
G05  23070674.162   121237217.918 7      9302.308    23070671.628   121237217.911 7      9302.308    23070682.519    94470599.485 7      7248.551    23070682.940    94470606.475 7      7248.551
R19  21788700.657   116554835.333 6      3926.730    21788700.837   116554835.334 6      3926.730    21788712.425    90653798.704 7      3054.123    21788712.820    90653798.702 7      3054.123
G25  20372877.197   107060178.308 8      5948.667    20372876.588   107060178.304 8      5948.667    20372885.636    83423512.109 8      4635.325    20372887.200    83423551.118 8      4635.325
R20  19278848.543   103092666.230 7      7784.544    19278848.737   103092666.233 7      7784.544    19278860.133    80183228.262 7      6054.645    19278861.020    80183231.263 7      6054.645
G29  20625211.521   108386207.330 8      7448.819    20625209.590   108386207.329 8      7448.819    20625215.076    84456783.285 8      5804.274    20625217.320    84456807.286 8      5804.274
R09  19779228.009   105619958.351 8      5224.513    19779227.637   105619958.330 8      5224.513    19779237.840    82148891.507 8      4063.510    19779237.660    82148891.504 8      4063.510
R10  19395269.126   103387687.333 8      8691.222    19395268.827   103387687.316 8      8691.222
G28  21729327.303   114188372.904 7      7200.573    21729327.266   114188372.911 6      7200.573    21729333.613    88977953.249 6      5610.836    21729334.260    88977979.249 8      5610.836
G12  22467014.062   118064934.344 8      4684.983    22467013.877   118064934.339 7      4684.983    22467020.003    91998644.600 7      3650.636    22467022.360    91998679.603 7      3650.636
R11  22907519.596   122410857.588 6     11536.723    22907520.383   122410857.586 6     11536.723    22907529.934    95208483.152 6      8973.007    22907530.360    95208489.187 6      8973.007
G18  22523915.101   118363974.814 7     10495.569    22523915.315   118363974.805 6     10495.569    22523923.489    92231673.143 6      8178.366    22523924.140    92231707.142 8      8178.366
G31  22851476.057   120085311.621 7      8957.617    22851475.407   120085311.618 6      8957.617    22851483.198    93572970.826 6      6979.961    22851483.900    93572997.837 7      6979.961
G20  23182182.522   121823184.509 7      7178.613    23182181.234   121823184.511 5      7178.613    23182190.621    94927188.572 5      5593.725
R21  22477147.138   120279767.221 8     10958.048    22477147.333   120279767.228 8     10958.048    22477159.978    93550985.729 7      8522.927    22477159.540    93550989.745 7      8522.927
> 2024 05 02 08 34 20.0000000  0 14
G05  23061823.858   121190710.194 7      9300.781    23061821.254   121190710.193 7      9300.781    23061832.896    94434359.707 7      7247.362    23061833.400    94434366.715 7      7247.362
R19  21785029.779   116535201.915 7      3926.633    21785030.738   116535201.922 6      3926.633    21785042.053    90638528.250 7      3054.048    21785042.340    90638528.249 7      3054.048
G25  20367218.030   107030438.748 8      5947.159    20367217.363   107030438.741 8      5947.159    20367226.362    83400338.413 8      4634.150    20367227.940    83400377.418 8      4634.150
R20  19271570.944   103053749.995 7      7782.067    19271571.053   103053750.003 6      7782.067    19271582.671    80152960.083 7      6052.719    19271583.700    80152963.085 7      6052.719
G29  20618124.529   108348964.666 8      7448.120    20618122.581   108348964.667 8      7448.120    20618128.078    84427763.026 8      5803.730    20618130.540    84427787.032 8      5803.730
R09  19774337.370   105593842.575 8      5221.895    19774336.884   105593842.556 8      5221.895    19774347.344    82128579.217 8      4061.474    19774347.040    82128579.213 8      4061.474
R10  19387118.156   103344238.056 8      8688.473    19387118.212   103344238.037 8      8688.473
G28  21722477.162   114152376.130 7      7198.098    21722477.085   114152376.132 6      7198.098    21722483.631    88949903.799 6      5608.908    21722484.040    88949929.804 8      5608.908
G12  22462556.560   118041510.925 7      4684.333    22462556.640   118041510.923 7      4684.333    22462562.680    91980392.564 7      3650.129    22462564.760    91980427.565 7      3650.129
R11  22896724.616   122353174.170 6     11537.000    22896725.000   122353174.165 6     11537.000    22896735.012    95163618.288 6      8973.222    22896736.120    95163624.307 6      8973.222
G18  22513929.242   118311498.921 8     10494.794    22513929.641   118311498.919 6     10494.794    22513937.947    92190782.857 6      8177.762    22513938.200    92190816.855 8      8177.762
G31  22842953.970   120040528.562 7      8955.515    22842953.918   120040528.563 6      8955.515    22842961.394    93538074.935 6      6978.323    22842962.140    93538101.942 7      6978.323
G20  23175353.449   121787296.807 7      7176.538    23175351.741   121787296.808 5      7176.538    23175360.594    94899224.114 5      5592.107
R21  22466908.896   120224979.559 8     10957.042    22466908.224   120224979.570 8     10957.042    22466921.712    93508373.120 7      8522.144    22466921.380    93508377.128 7      8522.144
> 2024 05 02 08 34 25.0000000  0 14
G05  23052975.532   121144210.215 7      9299.237    23052972.711   121144210.212 7      9299.237    23052984.253    94398125.978 7      7246.159    23052985.100    94398132.991 7      7246.159
R19  21781359.786   116515569.250 7      3926.449    21781360.428   116515569.255 6      3926.449    21781371.680    90623258.367 7      3053.905    21781372.320    90623258.365 7      3053.905
G25  20361560.254   107000706.950 8      5945.618    20361559.582   107000706.945 8      5945.618    20361568.640    83377170.777 8      4632.949    20361570.180    83377209.784 8      4632.949
R20  19264295.995   103014847.512 7      7779.256    19264296.145   103014847.510 7      7779.256    19264307.753    80122702.580 7      6050.532    19264308.520    80122705.584 7      6050.532
G29  20611038.238   108311725.872 8      7447.413    20611036.382   108311725.868 8      7447.413    20611041.538    84398745.776 8      5803.179    20611044.080    84398769.777 8      5803.179
R09  19769449.292   105567740.177 8      5219.186    19769448.863   105567740.158 9      5219.186    19769459.230    82108277.343 8      4059.367    19769459.160    82108277.338 8      4059.367
R10  19378969.656   103300803.037 8      8685.636    19378969.903   103300803.021 8      8685.636
G28  21715629.844   114116392.016 7      7195.512    21715629.908   114116392.016 6      7195.512    21715636.158    88921864.225 6      5606.893    21715636.420    88921890.229 8      5606.893
G12  22458100.034   118018091.200 7      4683.578    22458099.831   118018091.201 7      4683.578    22458106.128    91962143.408 7      3649.541    22458108.040    91962178.402 7      3649.541
R11  22885930.719   122295490.129 6     11536.988    22885930.134   122295490.129 6     11536.988    22885940.117    95118752.945 6      8973.213    22885942.400    95118758.962 6      8973.213
G18  22503944.442   118259027.385 7     10493.911    22503944.235   118259027.384 6     10493.911    22503952.767    92149895.950 6      8177.074    22503953.500    92149929.952 8      8177.074
G31  22834434.275   119995756.265 7      8953.392    22834433.550   119995756.259 6      8953.392    22834440.756    93503187.433 5      6976.669    22834441.740    93503214.441 7      6976.669
G20  23168526.060   121751420.194 7      7174.252    23168524.135   121751420.196 5      7174.252    23168532.981    94871268.327 5      5590.327
R21  22456671.276   120170196.935 8     10955.980    22456670.460   120170196.952 8     10955.980    22456684.593    93465764.446 7      8521.318    22456684.260    93465768.452 7      8521.318
> 2024 05 02 08 34 30.0000000  0 14
G05  23044128.184   121097717.898 7      9297.838    23044125.862   121097717.895 7      9297.838    23044137.066    94361898.207 7      7245.068    23044138.380    94361905.225 7      7245.068
R19  21777690.150   116495937.175 7      3926.356    21777690.291   116495937.173 6      3926.356    21777701.505    90607988.953 7      3053.833    21777702.480    90607988.952 7      3053.833
G25  20355903.875   106970982.819 8      5944.123    20355903.294   106970982.815 8      5944.123    20355912.348    83354009.103 8      4631.784    20355913.600    83354048.109 8      4631.784
R20  19257023.656   102975958.512 7      7776.538    19257023.956   102975958.520 7      7776.538    19257035.235    80092455.589 7      6048.418    19257035.940    80092458.586 7      6048.418
G29  20603952.534   108274490.861 8      7446.671    20603950.790   108274490.860 8      7446.671    20603956.043    84369731.480 8      5802.601    20603958.520    84369755.483 8      5802.601
R09  19764563.736   105541650.942 9      5216.546    19764563.400   105541650.925 8      5216.546    19764573.677    82087985.693 8      4057.314    19764573.500    82087985.694 8      4057.314
R10  19370824.046   103257382.103 8      8682.829    19370824.254   103257382.087 8      8682.829
G28  21708784.363   114080420.451 8      7193.066    21708784.863   114080420.457 6      7193.066    21708791.049    88893834.424 6      5604.987    21708791.480    88893860.431 8      5604.987
G12  22453644.036   117994675.059 7      4682.959    22453644.161   117994675.058 7      4682.959    22453650.198    91943897.036 7      3649.059    22453652.480    91943932.028 7      3649.059
R11  22875136.230   122237805.337 6     11536.884    22875134.624   122237805.341 6     11536.884    22875145.381    95073887.013 6      8973.132    22875148.120    95073893.028 6      8973.132
G18  22493960.141   118206560.110 7     10493.141    22493960.543   118206560.106 6     10493.141    22493968.101    92109012.375 6      8176.473    22493969.340    92109046.375 8      8176.473
G31  22825916.340   119950994.668 7      8951.195    22825916.036   119950994.665 6      8951.195    22825923.409    93468308.271 5      6974.957    22825923.940    93468335.280 7      6974.957
G20  23161701.560   121715554.625 7      7172.018    23161699.472   121715554.626 5      7172.018    23161709.525    94843321.119 5      5588.586
R21  22446434.527   120115419.282 7     10955.018    22446433.747   120115419.295 7     10955.018    22446448.272    93423159.612 7      8520.570    22446448.120    93423163.615 7      8520.570
> 2024 05 02 08 34 35.0000000  0 14
G05  23035282.138   121051233.145 7      9295.960    23035280.015   121051233.146 6      9295.960    23035291.469    94325676.341 6      7243.605    23035292.920    94325683.355 7      7243.605
R19  21774020.544   116476305.425 7      3926.313    21774020.555   116476305.437 6      3926.313    21774031.554    90592719.805 7      3053.799    21774032.500    90592719.805 7      3053.799
G25  20350248.946   106941266.121 8      5942.529    20350248.483   106941266.116 8      5942.529    20350257.481    83330853.227 8      4630.542    20350258.720    83330892.233 8      4630.542
R20  19249753.647   102937082.805 7      7773.785    19249754.166   102937082.794 6      7773.785    19249765.244    80062218.910 7      6046.277    19249766.180    80062221.912 7      6046.277
G29  20596867.830   108237259.408 8      7445.823    20596865.776   108237259.407 8      7445.823    20596871.236    84340719.950 8      5801.940    20596873.720    84340743.953 8      5801.940
R09  19759680.245   105515574.696 9      5213.832    19759680.232   105515574.676 8      5213.832    19759690.471    82067704.150 8      4055.203    19759690.320    82067704.149 8      4055.203
R10  19362681.204   103213975.034 8      8679.913    19362681.103   103213975.018 8      8679.913
G28  21701941.704   114044461.231 8      7190.519    21701942.290   114044461.229 6      7190.519    21701948.169    88865814.237 6      5603.001    21701948.620    88865840.250 8      5603.001
G12  22449188.787   117971262.318 8      4682.051    22449188.819   117971262.314 7      4682.051    22449194.704    91925653.323 7      3648.352    22449197.220    91925688.313 7      3648.352
R11  22864340.627   122180119.546 6     11537.148    22864339.820   122180119.538 6     11537.148    22864350.514    95029020.305 6      8973.337    22864352.580    95029026.312 6      8973.337
G18  22483976.840   118154096.904 7     10492.110    22483976.923   118154096.903 6     10492.110    22483984.660    92068131.972 6      8175.670    22483985.500    92068165.974 8      8175.670
G31  22817400.743   119906243.541 7      8949.032    22817400.236   119906243.543 6      8949.032    22817407.011    93433437.269 6      6973.272    22817408.320    93433464.277 7      6973.272
G20  23154878.561   121679699.857 7      7169.763    23154877.192   121679699.847 5      7169.763    23154885.374    94815382.338 5      5586.828
R21  22436198.594   120060646.390 7     10954.071    22436199.478   120060646.416 8     10954.071    22436212.722    93380558.505 7      8519.833    22436212.380    93380562.506 7      8519.833
> 2024 05 02 08 34 40.0000000  0 14
G05  23026438.135   121004756.676 7      9294.546    23026435.953   121004756.678 7      9294.546    23026447.297    94289460.937 7      7242.503    23026448.680    94289467.951 7      7242.503
R19  21770350.817   116456674.883 7      3926.021    21770350.741   116456674.891 6      3926.021    21770362.217    90577451.562 7      3053.572    21770362.860    90577451.565 7      3053.572
G25  20344595.767   106911557.670 8      5940.994    20344595.121   106911557.667 8      5940.994    20344603.998    83307703.775 8      4629.346    20344605.460    83307742.779 8      4629.346
R20  19242486.386   102898221.313 7      7770.936    19242486.658   102898221.304 7      7770.936    19242497.922    80031993.310 7      6044.062    19242499.100    80031996.309 7      6044.062
G29  20589783.827   108200032.294 8      7445.032    20589781.765   108200032.294 8      7445.032    20589787.178    84311711.804 8      5801.323    20589789.700    84311735.809 8      5801.323
R09  19754799.712   105489512.209 8      5211.182    19754799.412   105489512.190 8      5211.182    19754809.616    82047433.313 8      4053.141    19754809.320    82047433.314 8      4053.141
R10  19354541.314   103170582.596 8      8677.148    19354540.847   103170582.573 8      8677.148
G28  21695101.253   114008515.163 7      7187.973    21695101.212   114008515.162 6      7187.973    21695107.899    88837804.311 6      5601.018    21695108.640    88837830.316 8      5601.018
G12  22444734.386   117947853.701 7      4681.394    22444734.219   117947853.701 7      4681.394    22444740.271    91907412.821 7      3647.839    22444743.340    91907447.814 7      3647.839
R11  22853545.293   122122433.702 6     11537.295    22853544.428   122122433.689 6     11537.295    22853555.775    94984153.545 6      8973.451    22853557.200    94984159.547 6      8973.451
G18  22473994.261   118101638.562 7     10491.298    22473994.385   118101638.558 6     10491.298    22474002.271    92027255.351 6      8175.037    22474002.980    92027289.348 8      8175.037
G31  22808886.919   119861503.685 7      8946.982    22808886.335   119861503.688 5      8946.982    22808893.224    93398575.051 5      6971.675    22808894.160    93398602.064 7      6971.675
G20  23148057.455   121643856.711 7      7167.561    23148056.563   121643856.712 5      7167.561    23148064.710    94787452.596 5      5585.112
R21  22425964.238   120005879.217 8     10953.048    22425965.765   120005879.241 8     10953.048    22425977.961    93337961.832 8      8519.038    22425977.880    93337965.834 7      8519.038
> 2024 05 02 08 34 45.0000000  0 14
G05  23017595.710   120958288.464 7      9292.700    23017593.240   120958288.467 7      9292.700    23017604.426    94253251.952 7      7241.065    23017606.180    94253258.966 7      7241.065
R19  21766681.704   116437045.294 7      3925.700    21766681.276   116437045.303 6      3925.700    21766692.702    90562184.078 7      3053.323    21766693.460    90562184.078 7      3053.323
G25  20338943.960   106881857.340 8      5939.178    20338943.223   106881857.338 8      5939.178    20338952.195    83284560.650 8      4627.931    20338953.560    83284599.656 8      4627.931
R20  19235222.047   102859373.907 7      7767.907    19235222.090   102859373.916 7      7767.907    19235233.537    80001778.673 7      6041.705    19235234.180    80001781.677 7      6041.705
G29  20582700.301   108162809.375 8      7444.114    20582698.371   108162809.371 8      7444.114    20582704.069    84282706.927 8      5800.608    20582706.640    84282730.928 8      5800.608
R09  19749921.504   105463463.362 8      5208.342    19749921.397   105463463.347 8      5208.342    19749931.556    82027173.080 8      4050.932    19749931.260    82027173.080 8      4050.932
R10  19346403.684   103127204.791 8      8674.004    19346403.189   103127204.770 8      8674.004
G28  21688263.296   113972582.087 7      7185.177    21688263.517   113972582.087 6      7185.177    21688270.026    88809804.503 6      5598.839    21688270.840    88809830.504 8      5598.839
G12  22440280.363   117924449.111 7      4680.395    22440280.598   117924449.111 7      4680.395    22440286.435    91889175.457 7      3647.061    22440289.560    91889210.457 7      3647.061
R11  22842749.894   122064747.674 6     11536.975    22842749.430   122064747.674 6     11536.975    22842760.311    94939286.650 6      8973.203    22842761.860    94939292.651 6      8973.203
G18  22464012.775   118049184.959 7     10490.071    22464012.405   118049184.958 6     10490.071    22464021.063    91986382.425 6      8174.082    22464021.300    91986416.424 8      8174.082
G31  22800375.323   119816774.996 7      8944.614    22800375.070   119816774.990 6      8944.614    22800382.225    93363721.521 6      6969.829    22800382.580    93363748.528 7      6969.829
G20  23141238.918   121608025.011 7      7165.244    23141237.362   121608025.008 5      7165.244    23141246.695    94759531.802 5      5583.307
R21  22415730.946   119951117.488 8     10951.707    22415732.436   119951117.510 8     10951.707    22415744.433    93295369.385 7      8517.994    22415744.180    93295373.386 7      8517.994
> 2024 05 02 08 34 50.0000000  0 14
G05  23008754.530   120911828.303 7      9291.103    23008752.029   120911828.301 7      9291.103    23008763.567    94217049.238 7      7239.820    23008765.200    94217056.258 7      7239.820
R19  21763012.222   116417416.650 7      3925.505    21763011.997   116417416.661 6      3925.505    21763023.359    90546917.323 7      3053.170    21763024.200    90546917.325 7      3053.170
G25  20333293.659   106852164.964 8      5937.598    20333293.014   106852164.958 8      5937.598    20333302.039    83261423.727 8      4626.699    20333303.400    83261462.731 8      4626.699
R20  19227960.127   102820540.356 7      7765.204    19227960.233   102820540.365 7      7765.204    19227971.348    79971574.795 7      6039.603    19227972.140    79971577.797 7      6039.603
G29  20575617.839   108125590.532 8      7443.325    20575615.899   108125590.535 8      7443.325    20575621.396    84253705.230 8      5799.993    20575623.820    84253729.234 8      5799.993
R09  19745046.141   105437428.052 8      5205.614    19745045.787   105437428.034 8      5205.614    19745055.857    82006923.376 8      4048.811    19745055.660    82006923.376 8      4048.811
R10  19338268.740   103083841.506 8      8671.164    19338267.969   103083841.485 8      8671.164
G28  21681428.163   113936661.862 7      7182.755    21681428.111   113936661.859 6      7182.755    21681434.883    88781814.711 6      5596.952    21681435.320    88781840.704 8      5596.952
G12  22435827.640   117901048.409 7      4679.641    22435827.540   117901048.404 7      4679.641    22435833.444    91870941.121 7      3646.474    22435836.820    91870976.127 7      3646.474
R11  22831954.285   122007061.243 6     11537.130    22831954.366   122007061.259 6     11537.130    22831965.922    94894419.487 6      8973.324    22831966.080    94894425.494 6      8973.324
G18  22454031.956   117996735.966 7     10489.167    22454032.135   117996735.965 6     10489.167    22454040.180    91945513.093 6      8173.377    22454040.660    91945547.091 8      8173.377
G31  22791865.655   119772057.339 7      8942.347    22791864.720   119772057.334 6      8942.347    22791872.816    93328876.604 6      6968.062    22791872.960    93328903.603 7      6968.062
G20  23134422.641   121572204.676 7      7162.869    23134421.231   121572204.674 5      7162.869    23134430.306    94731619.862 5      5581.456
R21  22405498.312   119896361.019 8     10950.653    22405499.108   119896361.041 8     10950.653    22405511.809    93252781.051 7      8517.175    22405511.260    93252785.053 7      8517.175
> 2024 05 02 08 34 55.0000000  0 14
G05  22999915.027   120865376.483 7      9289.486    22999912.127   120865376.479 7      9289.486    22999924.255    94180853.043 7      7238.561    22999925.820    94180860.057 7      7238.561
R19  21759342.794   116397789.122 6      3925.367    21759342.893   116397789.131 6      3925.367    21759354.287    90531651.444 7      3053.063    21759355.220    90531651.446 7      3053.063
G25  20327645.041   106822480.922 8      5935.967    20327644.363   106822480.920 8      5935.967    20327653.313    83238293.299 8      4625.429    20327654.640    83238332.306 8      4625.429
R20  19220700.612   102781721.033 7      7762.554    19220701.013   102781721.032 7      7762.554    19220711.614    79941381.974 7      6037.542    19220712.740    79941384.975 7      6037.542
G29  20568536.273   108088376.121 8      7442.532    20568534.332   108088376.120 8      7442.532    20568540.037    84224706.979 8      5799.375    20568542.300    84224730.981 8      5799.375
R09  19740173.148   105411406.566 8      5202.944    19740172.914   105411406.548 8      5202.944    19740182.975    81986684.427 8      4046.734    19740182.820    81986684.423 8      4046.734
R10  19330136.606   103040493.123 8      8668.295    19330136.016   103040493.103 8      8668.295
G28  21674595.453   113900754.884 8      7180.173    21674595.217   113900754.885 6      7180.173    21674601.890    88753835.240 6      5594.940    21674602.540    88753861.235 8      5594.940
G12  22431375.645   117877651.986 7      4678.913    22431375.567   117877651.988 7      4678.913    22431381.445    91852710.113 7      3645.906    22431384.380    91852745.127 7      3645.906
R11  22821158.280   121949374.916 6     11537.283    22821159.008   121949374.927 6     11537.283    22821170.198    94849552.361 6      8973.442    22821170.480    94849558.364 6      8973.442
G18  22444052.042   117944291.955 7     10488.342    22444052.151   117944291.948 6     10488.342    22444060.576    91904647.639 6      8172.734    22444061.140    91904681.640 8      8172.734
G31  22783358.465   119727351.091 7      8940.102    22783357.895   119727351.089 6      8940.102    22783364.413    93294040.565 5      6966.313    22783365.560    93294067.572 7      6966.313
G20  23127608.617   121536396.020 7      7160.531    23127607.245   121536396.017 5      7160.531    23127616.245    94703717.014 5      5579.635
R21  22395266.705   119841610.246 8     10949.525    22395266.861   119841610.269 8     10949.525    22395280.216    93210197.150 7      8516.297    22395279.720    93210201.158 7      8516.297
> 2024 05 02 08 35  0.0000000  0 14
G05  22991076.999   120818933.294 7      9287.672    22991074.211   120818933.293 7      9287.672    22991086.670    94144663.558 7      7237.147    22991087.940    94144670.565 7      7237.147
R19  21755674.044   116378162.912 6      3925.129    21755674.126   116378162.933 6      3925.129    21755685.811    90516386.592 7      3052.878    21755686.160    90516386.595 7      3052.878
G25  20321998.045   106792805.369 8      5934.295    20321997.297   106792805.366 8      5934.295    20322006.209    83215169.484 8      4624.126    20322007.600    83215208.488 8      4624.126
R20  19213444.052   102742916.124 7      7759.487    19213444.303   102742916.134 7      7759.487    19213455.036    79911200.381 7      6035.156    19213455.820    79911203.379 7      6035.156
G29  20561455.542   108051166.321 8      7441.434    20561453.340   108051166.321 8      7441.434    20561459.144    84195712.323 8      5798.520    20561461.740    84195736.328 8      5798.520
R09  19735302.805   105385399.154 9      5200.075    19735302.887   105385399.130 8      5200.075    19735312.765    81966456.419 8      4044.502    19735312.160    81966456.414 8      4044.502
R10  19322006.944   102997159.740 8      8665.185    19322006.771   102997159.714 8      8665.185
G28  21667764.668   113864861.296 8      7177.401    21667764.546   113864861.296 6      7177.401    21667771.516    88725866.197 6      5592.780    21667772.220    88725892.192 8      5592.780
G12  22426924.341   117854259.953 7      4677.966    22426924.378   117854259.951 7      4677.966    22426929.994    91834482.538 7      3645.168    22426933.040    91834517.556 7      3645.168
R11  22810364.202   121891688.871 6     11537.144    22810363.737   121891688.870 6     11537.144    22810375.877    94804685.444 6      8973.334    22810375.820    94804691.449 6      8973.334
G18  22434073.332   117891853.122 7     10487.165    22434073.486   117891853.124 6     10487.165    22434081.593    91863786.223 6      8171.817    22434082.400    91863820.218 8      8171.817
G31  22774853.114   119682656.400 7      8937.730    22774852.962   119682656.387 5      8937.730    22774859.795    93259213.534 5      6964.465    22774860.480    93259240.544 7      6964.465
G20  23120796.554   121500599.204 7      7158.220    23120795.410   121500599.201 5      7158.220    23120805.107    94675823.383 5      5577.834
R21  22385036.368   119786865.377 8     10948.361    22385036.206   119786865.388 7     10948.361    22385050.055    93167617.810 7      8515.392    22385049.460    93167621.823 7      8515.392
> 2024 05 02 08 35  5.0000000  0 14
G05  22982240.948   120772499.049 7      9286.272    22982237.752   120772499.048 7      9286.272    22982250.394    94108481.046 7      7236.056    22982251.540    94108488.047 7      7236.056
R19  21752005.238   116358538.385 7      3924.963    21752005.564   116358538.398 6      3924.963    21752016.825    90501123.044 7      3052.749    21752017.500    90501123.048 7      3052.749
G25  20316352.551   106763138.618 8      5932.787    20316351.950   106763138.615 8      5932.787    20316360.714    83192052.527 8      4622.951    20316362.060    83192091.531 8      4622.951
R20  19206190.370   102704126.028 7      7756.914    19206190.213   102704126.028 7      7756.914    19206201.167    79881030.303 7      6033.156    19206202.020    79881033.301 7      6033.156
G29  20554375.601   108013961.399 8      7440.822    20554373.448   108013961.397 8      7440.822    20554379.203    84166721.468 8      5798.043    20554381.580    84166745.470 8      5798.043
R09  19730435.162   105359406.075 9      5197.555    19730435.300   105359406.053 8      5197.555    19730445.228    81946239.561 8      4042.542    19730444.720    81946239.555 8      4042.542
R10  19313880.725   102953841.708 8      8662.394    19313880.489   102953841.687 8      8662.394
G28  21660937.130   113828981.383 8      7174.891    21660936.728   113828981.380 6      7174.891    21660943.939    88697907.814 6      5590.824    21660944.280    88697933.814 8      5590.824
G12  22422474.141   117830872.627 8      4677.306    22422473.937   117830872.626 7      4677.306    22422479.679    91816258.622 7      3644.654    22422482.040    91816293.635 7      3644.654
R11  22799569.037   121834003.330 6     11537.422    22799568.914   121834003.317 6     11537.422    22799581.051    94759818.921 6      8973.550    22799580.360    94759824.918 6      8973.550
G18  22424095.322   117839419.737 7     10486.385    22424095.779   117839419.735 6     10486.385    22424103.795    91822929.056 6      8171.209    22424104.860    91822963.051 8      8171.209
G31  22766350.381   119637973.590 7      8935.641    22766349.705   119637973.578 5      8935.641    22766357.072    93224395.761 5      6962.837    22766357.440    93224422.778 7      6962.837
G20  23113986.842   121464814.557 7      7156.049    23113985.715   121464814.558 5      7156.049    23113994.563    94647939.251 5      5576.142
R21  22374807.279   119732126.661 7     10947.434    22374806.614   119732126.677 7     10947.434    22374820.829    93125043.269 7      8514.671    22374820.460    93125047.281 7      8514.671
> 2024 05 02 08 35 10.0000000  0 14
G05  22973405.988   120726072.181 7      9284.493    22973403.301   120726072.180 7      9284.493    22973415.323    94072304.279 7      7234.670    22973416.360    94072311.278 7      7234.670
R19  21748336.661   116338913.842 7      3924.820    21748336.876   116338913.844 6      3924.820    21748348.077    90485859.485 7      3052.637    21748348.240    90485859.491 7      3052.637
G25  20310708.458   106733479.096 8      5931.066    20310707.924   106733479.090 8      5931.066    20310716.787    83168941.200 8      4621.610    20310718.000    83168980.207 8      4621.610
R20  19198938.452   102665349.105 7      7753.992    19198938.581   102665349.109 7      7753.992    19198949.629    79850870.470 7      6030.882    19198950.460    79850873.472 7      6030.882
G29  20547296.542   107976759.820 8      7439.867    20547294.344   107976759.820 8      7439.867    20547300.027    84137733.217 8      5797.299    20547302.320    84137757.221 8      5797.299
R09  19725569.899   105333425.638 9      5194.661    19725569.879   105333425.615 8      5194.661    19725579.890    81926032.542 8      4040.292    19725579.420    81926032.537 8      4040.292
R10  19305757.116   102910537.586 8      8659.261    19305757.149   102910537.570 8      8659.261
G28  21654111.535   113793113.604 8      7172.202    21654111.771   113793113.603 6      7172.202    21654118.087    88669958.881 6      5588.729    21654118.920    88669984.883 8      5588.729
G12  22418024.061   117807488.478 8      4676.387    22418024.052   117807488.474 7      4676.387    22418029.747    91798037.180 7      3643.938    22418032.240    91798072.186 7      3643.938
R11  22788773.653   121776316.821 6     11537.093    22788773.738   121776316.814 6     11537.093    22788785.956    94714951.647 6      8973.295    22788785.700    94714957.652 6      8973.295
G18  22414118.500   117786990.289 7     10485.391    22414118.435   117786990.286 6     10485.391    22414126.884    91782074.945 6      8170.434    22414127.660    91782108.947 8      8170.434
G31  22757849.675   119593301.092 7      8933.446    22757849.110   119593301.088 5      8933.446    22757855.520    93189586.034 5      6961.127    22757856.920    93189613.047 7      6961.127
G20  23107179.583   121429040.525 7      7153.655    23107178.259   121429040.522 5      7153.655    23107186.506    94620063.371 5      5574.276
R21  22364578.690   119677392.601 7     10946.204    22364577.669   119677392.621 7     10946.204    22364592.226    93082472.353 7      8513.714    22364592.080    93082476.361 7      8513.714
> 2024 05 02 08 35 15.0000000  0 14
G05  22964572.724   120679653.717 7      9282.738    22964570.131   120679653.719 7      9282.738    22964582.205    94036134.064 7      7233.303    22964582.840    94036141.071 7      7233.303
R19  21744668.298   116319290.247 6      3924.686    21744668.383   116319290.247 6      3924.686    21744679.702    90470596.649 7      3052.534    21744680.100    90470596.653 7      3052.534
G25  20305066.019   106703827.759 8      5929.409    20305065.307   106703827.756 8      5929.409    20305074.409    83145836.257 8      4620.318    20305075.820    83145875.266 8      4620.318
R20  19191689.489   102626586.266 7      7751.058    19191689.635   102626586.266 7      7751.058    19191700.874    79820721.589 7      6028.601    19191701.620    79820724.590 7      6028.601
G29  20540217.951   107939562.520 8      7439.001    20540215.955   107939562.516 8      7439.001    20540221.391    84108748.305 8      5796.624    20540223.840    84108772.305 8      5796.624
R09  19720707.107   105307458.898 8      5191.935    19720706.786   105307458.880 8      5191.935    19720717.176    81905836.172 8      4038.172    19720717.040    81905836.170 8      4038.172
R10  19297635.826   102867248.116 8      8656.376    19297636.224   102867248.104 8      8656.376
G28  21647288.834   113757258.881 8      7169.595    21647288.955   113757258.885 6      7169.595    21647295.041    88642020.132 6      5586.698    21647295.960    88642046.137 8      5586.698
G12  22413574.992   117784108.406 8      4675.578    22413574.776   117784108.404 7      4675.578    22413580.499    91779818.923 7      3643.308    22413582.960    91779853.923 7      3643.308
R11  22777977.999   121718630.219 6     11537.187    22777978.359   121718630.188 6     11537.187    22777989.739    94670084.302 6      8973.368    22777990.340    94670090.301 6      8973.368
G18  22404142.214   117734565.729 7     10484.348    22404142.341   117734565.726 6     10484.348    22404150.904    91741224.652 6      8169.622    22404151.240    91741258.651 8      8169.622
G31  22749350.824   119548639.903 7      8931.079    22749350.556   119548639.898 5      8931.079    22749356.709    93154785.110 5      6959.282    22749357.960    93154812.123 7      6959.282
G20  23100374.224   121393278.147 7      7151.275    23100372.965   121393278.146 5      7151.275    23100381.065    94592196.585 5      5572.422
R21  22354351.494   119622664.159 7     10945.138    22354351.044   119622664.179 7     10945.138    22354364.468    93039905.797 7      8512.885    22354364.720    93039909.800 7      8512.885
> 2024 05 02 08 35 20.0000000  0 14
G05  22955741.173   120633243.615 7      9281.265    22955739.032   120633243.616 7      9281.265    22955750.746    93999970.361 7      7232.154    22955751.380    93999977.370 7      7232.154
R19  21741000.311   116299667.637 7      3924.383    21741000.254   116299667.634 6      3924.383    21741011.604    90455334.596 7      3052.298    21741012.100    90455334.602 7      3052.298
G25  20299425.072   106674184.618 8      5927.815    20299424.607   106674184.611 8      5927.815    20299433.550    83122737.694 8      4619.077    20299434.720    83122776.703 8      4619.077
R20  19184442.950   102587837.524 7      7748.451    19184443.574   102587837.529 7      7748.451    19184454.635    79790583.681 7      6026.573    19184455.340    79790586.680 7      6026.573
G29  20533140.278   107902369.483 8      7438.187    20533138.375   107902369.483 8      7438.187    20533143.921    84079766.712 8      5795.990    20533146.460    84079790.714 8      5795.990
R09  19715846.981   105281505.730 8      5189.286    19715846.523   105281505.710 8      5189.286    19715857.075    81885650.358 8      4036.111    19715856.640    81885650.356 8      4036.111
R10  19289517.894   102823973.263 8      8653.482    19289517.709   102823973.243 8      8653.482
G28  21640468.352   113721417.251 8      7166.945    21640468.725   113721417.248 6      7166.945    21640475.046    88614091.580 6      5584.633    21640475.700    88614117.588 8      5584.633
G12  22409126.646   117760732.441 8      4674.806    22409126.293   117760732.445 7      4674.806    22409132.557    91761603.874 7      3642.706    22409134.740    91761638.874 7      3642.706
R11  22767183.233   121660943.528 6     11537.359    22767182.497   121660943.525 6     11537.359    22767195.523    94625216.916 6      8973.501    22767195.340    94625222.922 6      8973.501
G18  22394167.579   117682146.043 7     10483.509    22394166.842   117682146.045 6     10483.509    22394175.282    91700378.164 6      8168.968    22394176.160    91700412.157 8      8168.968
G31  22740854.182   119503989.981 7      8928.869    22740853.910   119503989.971 6      8928.869    22740859.757    93119992.966 6      6957.560    22740860.980    93120019.979 7      6957.560
G20  23093571.004   121357527.310 7      7148.951    23093570.122   121357527.312 4      7148.951    23093578.027    94564338.794 4      5570.611
R21  22344125.514   119567941.290 7     10943.987    22344125.036   119567941.323 7     10943.987    22344138.658    92997343.579 8      8511.990    22344138.460    92997347.575 8      8511.990
> 2024 05 02 08 35 25.0000000  0 14
G05  22946911.361   120586841.903 7      9279.405    22946909.348   120586841.900 7      9279.405    22946920.805    93963813.183 7      7230.705    22946921.520    93963820.193 7      7230.705
R19  21737332.280   116280045.919 7      3924.261    21737332.029   116280045.926 6      3924.261    21737343.579    90440073.248 7      3052.203    21737344.040    90440073.256 7      3052.203
G25  20293785.926   106644549.627 8      5926.088    20293785.117   106644549.624 8      5926.088    20293794.178    83099645.490 8      4617.731    20293795.480    83099684.499 8      4617.731
R20  19177199.177   102549102.843 7      7745.623    19177200.008   102549102.848 7      7745.623    19177210.922    79760456.704 7      6024.373    19177211.740    79760459.705 7      6024.373
G29  20526063.733   107865180.702 8      7437.414    20526061.569   107865180.697 8      7437.414    20526067.010    84050788.434 8      5795.388    20526069.600    84050812.438 8      5795.388
R09  19710989.307   105255566.247 8      5186.488    19710989.010   105255566.230 8      5186.488    19710999.459    81865475.189 8      4033.935    19710998.820    81865475.185 8      4033.935
R10  19281402.664   102780713.199 8      8650.519    19281402.438   102780713.182 8      8650.519
G28  21633650.601   113685588.653 8      7164.439    21633650.609   113685588.651 6      7164.439    21633656.637    88586173.180 6      5582.680    21633657.820    88586199.192 8      5582.680
G12  22404679.182   117737360.543 8      4673.963    22404678.934   117737360.545 7      4673.963    22404685.217    91743391.987 7      3642.049    22404687.640    91743426.986 7      3642.049
R11  22756388.187   121603256.921 6     11537.283    22756387.206   121603256.914 6     11537.283    22756400.532    94580349.565 6      8973.442    22756400.040    94580355.579 6      8973.442
G18  22384193.324   117629731.265 7     10482.412    22384192.892   117629731.256 6     10482.412    22384201.479    91659535.483 6      8168.113    22384201.920    91659569.484 8      8168.113
G31  22732359.895   119459351.339 7      8926.602    22732359.423   119459351.342 6      8926.602    22732365.596    93085209.616 6      6955.793    22732367.280    93085236.638 7      6955.793
G20  23086769.446   121321787.965 7      7146.688    23086768.475   121321787.956 4      7146.688    23086777.799    94536489.952 4      5568.848
R21  22333899.999   119513224.071 8     10942.821    22333901.157   119513224.100 8     10942.821    22333913.365    92954785.763 8      8511.083    22333913.400    92954789.756 7      8511.083
> 2024 05 02 08 35 30.0000000  0 14
G05  22938083.204   120540448.162 7      9277.862    22938080.683   120540448.157 7      9277.862    22938092.097    93927662.231 7      7229.503    22938093.980    93927669.244 7      7229.503
R19  21733663.602   116260424.911 6      3924.067    21733663.698   116260424.907 6      3924.067    21733675.556    90424812.434 7      3052.052    21733675.960    90424812.440 7      3052.052
G25  20288147.797   106614922.451 8      5924.509    20288147.486   106614922.446 8      5924.509    20288156.309    83076559.373 8      4616.501    20288157.480    83076598.380 8      4616.501
R20  19169958.140   102510381.818 7      7742.794    19169958.773   102510381.818 7      7742.794    19169970.049    79730340.344 7      6022.173    19169970.800    79730343.348 7      6022.173
G29  20518987.706   107827995.847 8      7436.517    20518985.594   107827995.843 8      7436.517    20518991.052    84021813.219 8      5794.689    20518993.720    84021837.223 8      5794.689
R09  19706134.133   105229640.089 8      5183.826    19706133.872   105229640.069 8      5183.826    19706144.191    81845310.383 8      4031.865    19706144.080    81845310.379 8      4031.865
R10  19273289.831   102737467.687 8      8647.562    19273289.554   102737467.669 8      8647.562
G28  21626834.949   113649772.779 7      7161.815    21626835.188   113649772.776 6      7161.815    21626841.655    88558264.700 6      5580.635    21626842.200    88558290.707 8      5580.635
G12  22400232.371   117713992.342 8      4673.162    22400231.913   117713992.336 7      4673.162    22400238.424    91725182.973 7      3641.425    22400240.980    91725217.967 7      3641.425
R11  22745592.896   121545569.802 6     11537.538    22745592.181   121545569.805 6     11537.538    22745605.321    94535481.815 6      8973.640    22745604.820    94535487.826 6      8973.640
G18  22374220.006   117577321.003 7     10481.596    22374219.665   117577321.002 6     10481.596    22374228.094    91618696.340 6      8167.477    22374228.760    91618730.346 8      8167.477
G31  22723867.771   119414723.707 7      8924.426    22723866.914   119414723.698 6      8924.426    22723873.886    93050434.831 6      6954.098    22723874.320    93050461.846 7      6954.098
G20  23079970.782   121286059.840 7      7144.466    23079969.977   121286059.842 4      7144.466    23079978.790    94508649.857 4      5567.117
R21  22323675.329   119458512.091 8     10941.756    22323677.472   119458512.116 8     10941.756    22323689.322    92912232.020 8      8510.254    22323689.180    92912236.013 7      8510.254
> 2024 05 02 08 35 35.0000000  0 14
G05  22929256.271   120494062.922 7      9276.116    22929253.513   120494062.918 7      9276.116    22929265.487    93891517.903 7      7228.143    22929266.720    93891524.914 7      7228.143
R19  21729996.552   116240805.032 6      3923.746    21729995.947   116240805.029 6      3923.746    21730008.157    90409552.492 7      3051.803    21730008.660    90409552.494 7      3051.803
G25  20282511.684   106585303.526 8      5922.811    20282511.001   106585303.520 8      5922.811    20282520.057    83053479.677 8      4615.177    20282521.340    83053518.680 8      4615.177
R20  19162719.725   102471674.921 7      7739.918    19162720.292   102471674.923 6      7739.918    19162731.741    79700234.982 7      6019.936    19162732.500    79700237.983 7      6019.936
G29  20511912.550   107790815.290 8      7435.557    20511910.474   107790815.288 8      7435.557    20511915.880    83992841.353 8      5793.941    20511918.400    83992865.359 8      5793.941
R09  19701281.430   105203727.635 8      5181.036    19701281.304   105203727.615 8      5181.036    19701291.549    81825156.235 8      4029.695    19701291.460    81825156.232 8      4029.695
R10  19265180.083   102694237.003 8      8644.559    19265179.685   102694236.986 8      8644.559
G28  21620021.971   113613970.019 7      7159.259    21620021.742   113613970.011 6      7159.259    21620028.936    88530366.436 6      5578.643    21620029.220    88530392.437 8      5578.643
G12  22395786.250   117690628.281 8      4672.212    22395786.039   117690628.277 7      4672.212    22395792.185    91706977.190 7      3640.685    22395795.280    91707012.186 7      3640.685
R11  22734797.162   121487882.835 6     11537.313    22734797.999   121487882.840 6     11537.313    22734810.018    94490614.191 6      8973.466    22734809.180    94490620.203 6      8973.466
G18  22364247.388   117524915.759 7     10480.466    22364247.192   117524915.745 6     10480.466    22364255.157    91577861.088 6      8166.597    22364256.200    91577895.095 8      8166.597
G31  22715377.065   119370107.430 7      8922.084    22715377.482   119370107.419 5      8922.084    22715382.945    93015668.890 5      6952.273    22715383.640    93015695.910 7      6952.273
G20  23073174.597   121250343.362 7      7142.028    23073173.150   121250343.371 5      7142.028    23073182.681    94480818.830 4      5565.217
R21  22313452.427   119403805.774 8     10940.561    22313454.433   119403805.805 8     10940.561    22313465.809    92869682.687 7      8509.325    22313465.380    92869686.684 7      8509.325
> 2024 05 02 08 35 40.0000000  0 14
G05  22920430.942   120447686.190 7      9274.446    22920428.124   120447686.188 7      9274.446    22920439.853    93855380.211 7      7226.841    22920441.140    93855387.208 7      7226.841
R19  21726328.996   116221186.069 6      3923.676    21726328.572   116221186.082 6      3923.676    21726340.388    90394293.283 7      3051.748    21726340.980    90394293.289 7      3051.748
G25  20276876.958   106555692.871 8      5921.357    20276876.234   106555692.868 8      5921.357    20276885.452    83030406.433 8      4614.044    20276886.640    83030445.436 8      4614.044
R20  19155484.220   102432982.154 7      7737.233    19155484.235   102432982.150 7      7737.233    19155496.084    79670140.603 7      6017.848    19155496.940    79670143.602 7      6017.848
G29  20504838.039   107753639.080 8      7434.881    20504836.217   107753639.074 8      7434.881    20504841.543    83963872.867 8      5793.414    20504843.980    83963896.870 8      5793.414
R09  19696431.503   105177828.882 8      5178.451    19696430.975   105177828.862 8      5178.451    19696441.669    81805012.740 8      4027.684    19696441.300    81805012.739 8      4027.684
R10  19257073.080   102651021.135 8      8641.744    19257072.378   102651021.122 8      8641.744
G28  21613211.420   113578180.447 7      7156.602    21613211.245   113578180.446 6      7156.602    21613218.098    88502478.447 6      5576.573    21613218.760    88502504.455 8      5576.573
G12  22391340.754   117667268.390 7      4671.583    22391340.868   117667268.385 7      4671.583    22391347.040    91688774.661 7      3640.194    22391350.360    91688809.655 7      3640.194
R11  22724001.742   121430195.994 6     11537.347    22724002.189   121430195.985 6     11537.347    22724015.000    94445746.667 6      8973.492    22724013.980    94445752.675 6      8973.492
G18  22354275.952   117472515.528 7     10479.614    22354276.148   117472515.526 6     10479.614    22354284.201    91537029.756 6      8165.933    22354284.840    91537063.760 8      8165.933
G31  22706889.268   119325502.566 7      8919.819    22706888.445   119325502.557 6      8919.819    22706895.189    92980911.860 6      6950.509    22706896.340    92980938.875 7      6950.509
G20  23066380.114   121214638.591 7      7139.771    23066379.109   121214638.575 4      7139.771    23066388.072    94452996.896 4      5563.458
R21  22303230.173   119349105.202 8     10939.455    22303231.585   119349105.223 8     10939.455    22303244.101    92827137.826 8      8508.465    22303243.200    92827141.834 7      8508.465
> 2024 05 02 08 35 45.0000000  0 14
G05  23211401.601   121976747.264 7      9272.812    23211398.818   121976747.262 7      9272.812    23211410.797    95046856.373 7      7225.567    23211411.540    95046863.371 7      7225.567
R19  22022455.515   117805259.482 6      3923.449    22022454.034   117805259.489 6      3923.449    22022465.932    91626350.349 7      3051.572    22022466.620    91626350.353 7      3051.572
G25  20571037.496   108101516.424 8      5919.665    20571036.661   108101516.417 8      5919.665    20571045.881    84234944.259 8      4612.726    20571047.220    84234983.261 8      4612.726
R20  19448045.104   103997436.302 7      7734.284    19448044.975   103997436.309 7      7734.284    19448056.867    80886938.278 7      6015.554    19448057.620    80886941.276 7      6015.554
G29  20797558.251   109291894.712 8      7433.879    20797556.452   109291894.711 8      7433.879    20797562.016    85162513.615 8      5792.633    20797564.540    85162537.616 8      5792.633
R09  19991377.475   106752824.070 8      5175.632    19991376.978   106752824.055 8      5175.632    19991387.813    83030008.987 8      4025.492    19991387.460    83030008.983 8      4025.492
R10  19548762.540   104205891.459 8      8638.702    19548762.137   104205891.439 8      8638.702
G28  21906197.280   115117831.181 8      7153.998    21906197.443   115117831.176 6      7153.998    21906204.049    89702206.278 6      5574.544    21906204.480    89702232.275 8      5574.544
G12  22686689.815   119219337.352 7      4670.693    22686689.681   119219337.353 7      4670.693    22686696.086    92898179.031 7      3639.501    22686699.640    92898214.036 7      3639.501
R11  23013001.244   122974520.854 6     11537.321    23013002.767   122974520.839 6     11537.321    23013013.450    95646888.226 6      8973.472    23013013.700    95646894.231 6      8973.472
G18  22644099.973   118995550.836 7     10478.496    22644100.012   118995550.835 6     10478.496    22644108.410    92723810.527 6      8165.062    22644108.940    92723844.529 8      8165.062
G31  22998197.727   120856338.061 7      8917.502    22998197.636   120856338.060 6      8917.502    22998203.288    94173770.699 6      6948.703    22998204.660    94173797.711 7      6948.703
G20  23359382.017   122754372.579 7      7137.547    23359381.696   122754372.594 5      7137.547    23359389.667    95652789.655 5      5561.725
R21  22592803.701   120898671.312 8     10938.257    22592804.295   120898671.330 7     10938.257    22592817.376    94032355.939 8      8507.534    22592816.760    94032359.954 7      8507.534
> 2024 05 02 08 35 50.0000000  0 14
G05  23202579.512   121930387.497 7      9271.205    23202576.547   121930387.485 7      9271.205    23202588.863    95010731.881 7      7224.316    23202589.720    95010738.892 7      7224.316
R19  22018787.421   117785642.457 6      3923.297    22018787.111   117785642.474 6      3923.297    22018798.555    91611092.650 7      3051.453    22018799.300    91611092.648 7      3051.453
G25  20565405.908   108071922.275 8      5917.893    20565405.103   108071922.270 8      5917.893    20565414.243    84211883.877 8      4611.345    20565415.640    84211922.881 8      4611.345
R20  19440815.128   103958771.765 6      7731.429    19440814.706   103958771.756 6      7731.429    19440826.316    80856865.849 7      6013.334    19440827.180    80856868.848 7      6013.334
G29  20790485.542   109254727.170 8      7432.993    20790483.782   109254727.170 8      7432.993    20790489.368    85133551.891 8      5791.942    20790491.620    85133575.894 8      5791.942
R09  19986532.778   106726952.748 8      5172.841    19986532.327   106726952.729 8      5172.841    19986542.963    83009886.829 8      4023.321    19986542.620    83009886.825 8      4023.321
R10  19540660.778   104162705.485 8      8635.633    19540660.493   104162705.466 8      8635.633
G28  21899392.003   115082067.866 7      7151.257    21899391.935   115082067.862 6      7151.257    21899398.799    89674338.749 6      5572.408    21899399.060    89674364.749 8      5572.408
G12  22682246.260   119195985.775 7      4669.935    22682246.102   119195985.776 7      4669.935    22682252.517    92879982.974 7      3638.910    22682255.700    92880017.983 7      3638.910
R11  23002205.957   122916834.278 6     11537.248    23002207.343   122916834.257 6     11537.248    23002217.964    95602020.895 6      8973.415    23002218.040    95602026.902 6      8973.415
G18  22634130.435   118943160.627 7     10477.564    22634130.539   118943160.626 6     10477.564    22634138.340    92682987.001 6      8164.336    22634139.360    92683021.001 8      8164.336
G31  22989713.916   120811755.984 7      8915.249    22989714.383   120811755.981 6      8915.249    22989720.144    94139031.411 6      6946.947    22989720.840    94139058.427 7      6946.947
G20  23352591.707   122718691.079 7      7135.101    23352591.341   122718691.074 5      7135.101    23352599.417    95624985.866 5      5559.819
R21  22582583.794   120843982.172 8     10937.204    22582583.501   120843982.183 7     10937.204    22582597.140    93989819.954 8      8506.714    22582597.020    93989823.975 7      8506.714
> 2024 05 02 08 35 55.0000000  0 14
G05  23193759.365   121884036.596 7      9269.371    23193756.443   121884036.596 7      9269.371    23193768.787    94974614.314 7      7222.887    23193769.060    94974621.329 7      7222.887
R19  22015120.894   117766026.715 6      3922.956    22015120.122   117766026.717 6      3922.956    22015131.335    91595835.932 7      3051.188    22015131.880    91595835.932 7      3051.188
G25  20559776.022   108042336.690 8      5916.389    20559775.220   108042336.684 8      5916.389    20559784.220    84188830.163 8      4610.173    20559785.820    84188869.168 8      4610.173
R20  19433586.898   103920121.561 7      7728.769    19433586.858   103920121.572 7      7728.769    19433598.475    80826804.596 7      6011.265    19433599.420    80826807.593 7      6011.265
G29  20783413.563   109217564.269 8      7432.196    20783411.781   109217564.271 8      7432.196    20783417.368    85104593.782 8      5791.322    20783419.920    85104617.784 8      5791.322
R09  19981690.724   106701095.464 8      5170.034    19981690.264   106701095.449 8      5170.034    19981700.609    82989775.593 8      4021.137    19981700.400    82989775.590 8      4021.137
R10  19532562.285   104119534.770 8      8632.694    19532561.776   104119534.752 8      8632.694
G28  21892588.805   115046317.984 8      7148.750    21892589.026   115046317.981 6      7148.750    21892595.554    89646481.692 6      5570.455    21892595.940    89646507.691 8      5570.455
G12  22677803.511   119172638.675 8      4669.032    22677803.507   119172638.673 7      4669.032    22677809.692    92861790.403 7      3638.207    22677813.140    92861825.415 7      3638.207
R11  22991410.823   122859148.244 6     11537.266    22991411.227   122859148.234 6     11537.266    22991423.537    95557153.999 6      8973.429    22991422.840    95557160.016 6      8973.429
G18  22624161.708   118890775.803 7     10476.477    22624161.808   118890775.802 6     10476.477    22624169.564    92642167.669 6      8163.488    22624170.760    92642201.666 8      8163.488
G31  22981232.404   120767185.678 7      8912.984    22981232.284   120767185.676 6      8912.984    22981238.660    94104301.308 6      6945.183    22981239.400    94104328.317 7      6945.183
G20  23345804.364   122683021.499 7      7132.883    23345802.763   122683021.502 5      7132.883    23345812.139    95597191.406 5      5558.091
R21  22572364.678   120789299.119 8     10936.153    22572364.057   120789299.130 7     10936.153    22572378.739    93947288.714 8      8505.897    22572378.500    93947292.729 8      8505.897
> 2024 05 02 08 36  0.0000000  0 14
G05  23184940.780   121837694.322 7      9267.681    23184937.782   121837694.321 7      9267.681    23184950.044    94938503.460 7      7221.569    23184950.900    94938510.476 7      7221.569
R19  22011454.103   117746411.942 6      3922.856    22011453.739   117746411.964 6      3922.856    22011464.804    91580579.979 7      3051.110    22011465.140    91580579.983 7      3051.110
G25  20554147.557   108012759.433 8      5914.661    20554146.784   108012759.431 8      5914.661    20554155.933    84165782.944 8      4608.827    20554157.220    84165821.952 8      4608.827
R20  19426361.847   103881485.573 7      7725.737    19426362.011   103881485.574 7      7725.737    19426373.431    80796754.371 7      6008.906    19426374.240    80796757.374 7      6008.906
G29  20776342.716   109180405.800 8      7431.280    20776340.833   109180405.802 8      7431.280    20776346.499    85075639.125 8      5790.608    20776348.660    85075663.127 8      5790.608
R09  19976850.943   106675251.982 8      5167.383    19976850.873   106675251.963 8      5167.383    19976860.959    82969675.086 8      4019.076    19976860.860    82969675.083 8      4019.076
R10  19524466.144   104076379.228 8      8629.686    19524465.896   104076379.207 8      8629.686
G28  21885788.584   115010581.324 7      7146.025    21885788.466   115010581.321 6      7146.025    21885794.948    89618634.933 6      5568.331    21885795.600    89618660.932 8      5568.331
G12  22673361.492   119149295.741 7      4668.193    22673361.277   119149295.737 7      4668.193    22673367.922    92843601.080 7      3637.553    22673370.560    92843636.100 7      3637.553
R11  22980615.654   122801462.377 6     11537.138    22980615.724   122801462.366 6     11537.138    22980628.468    95512287.249 6      8973.330    22980627.680    95512293.262 6      8973.330
G18  22614194.264   118838396.072 7     10475.455    22614194.058   118838396.079 6     10475.455    22614202.444    92601352.322 6      8162.692    22614203.300    92601386.320 8      8162.692
G31  22972753.529   120722626.875 7      8910.568    22972753.600   120722626.871 6      8910.568    22972758.634    94069580.163 6      6943.300    22972760.160    94069607.177 7      6943.300
G20  23339018.812   122647363.658 7      7130.411    23339017.366   122647363.664 5      7130.411    23339026.598    95569406.063 5      5556.165
R21  22562146.912   120734621.899 7     10934.791    22562146.196   120734621.910 7     10934.791    22562160.937    93904761.999 8      8504.837    22562161.000    93904766.006 8      8504.837
> 2024 05 02 08 36  5.0000000  0 14
G05  23176123.735   121791360.534 7      9265.927    23176121.007   121791360.533 7      9265.927    23176132.845    94902399.211 7      7220.203    23176133.900    94902406.228 7      7220.203
R19  22007787.205   117726798.195 6      3922.603    22007786.965   117726798.213 6      3922.603    22007798.169    91565324.821 7      3050.913    22007798.740    91565324.822 7      3050.913
G25  20548520.793   107983190.499 8      5913.081    20548520.200   107983190.493 8      5913.081    20548529.078    84142742.204 8      4607.596    20548530.500    84142781.210 8      4607.596
R20  19419139.186   103842863.663 7      7723.084    19419139.580   103842863.665 7      7723.084    19419151.039    80766715.108 7      6006.843    19419151.820    80766718.110 7      6006.843
G29  20769272.548   109143251.777 8      7430.367    20769270.658   109143251.775 8      7430.367    20769276.179    85046687.930 8      5789.897    20769278.780    85046711.932 8      5789.897
R09  19972013.712   106649422.196 8      5164.685    19972013.674   106649422.175 8      5164.685    19972023.925    82949585.229 8      4016.978    19972023.560    82949585.229 8      4016.978
R10  19516373.386   104033238.693 8      8626.764    19516372.789   104033238.671 8      8626.764
G28  21878990.284   114974857.875 8      7143.343    21878990.517   114974857.873 6      7143.343    21878996.941    89590798.470 6      5566.242    21878997.600    89590824.471 8      5566.242
G12  22668920.216   119125957.010 7      4667.360    22668920.059   119125957.007 7      4667.360    22668926.446    92825415.033 7      3636.904    22668929.480    92825450.048 7      3636.904
R11  22969820.747   122743776.759 6     11537.283    22969820.567   122743776.741 6     11537.283    22969833.566    95467420.668 6      8973.442    22969833.460    95467426.676 6      8973.442
G18  22604227.796   118786021.500 7     10474.436    22604227.626   118786021.497 6     10474.436    22604235.840    92560540.955 6      8161.898    22604236.660    92560574.955 8      8161.898
G31  22964276.073   120678079.564 7      8908.285    22964276.268   120678079.564 6      8908.285    22964282.219    94034867.981 6      6941.521    22964283.460    94034894.991 7      6941.521
G20  23332235.315   122611717.538 7      7128.074    23332234.241   122611717.538 5      7128.074    23332243.626    95541629.880 5      5554.344
R21  22551929.948   120679950.437 7     10933.857    22551930.410   120679950.458 7     10933.857    22551944.118    93862239.785 8      8504.111    22551944.180    93862243.785 8      8504.111
> 2024 05 02 08 36 10.0000000  0 14
G05  23167308.232   121745035.116 7      9264.294    23167305.729   121745035.123 7      9264.294    23167317.043    94866301.488 7      7218.930    23167318.280    94866308.504 7      7218.930
R19  22004120.812   117707185.075 6      3922.579    22004120.133   117707185.087 6      3922.579    22004131.726    91550070.147 7      3050.895    22004132.260    91550070.149 7      3050.895
G25  20542895.497   107953629.620 8      5911.339    20542894.959   107953629.615 8      5911.339    20542903.798    84119707.743 8      4606.238    20542905.160    84119746.748 8      4606.238
R20  19411919.549   103804255.717 7      7720.136    19411919.582   103804255.724 6      7720.136    19411931.212    80736686.702 7      6004.550    19411931.920    80736689.706 7      6004.550
G29  20762203.180   109106101.880 8      7429.446    20762201.243   109106101.879 8      7429.446    20762206.746    85017739.953 8      5789.179    20762209.540    85017763.956 8      5789.179
R09  19967179.234   106623605.865 8      5161.890    19967179.086   106623605.848 8      5161.890    19967189.257    82929505.854 8      4014.804    19967188.860    82929505.852 8      4014.804
R10  19508282.722   103990112.852 8      8623.639    19508282.674   103990112.834 8      8623.639
G28  21872194.845   114939147.335 7      7140.799    21872194.968   114939147.334 6      7140.799    21872201.326    89562972.063 6      5564.259    21872201.860    89562998.068 8      5564.259
G12  22664479.890   119102622.196 7      4666.469    22664479.708   119102622.197 7      4666.469    22664485.790    92807232.046 7      3636.209    22664488.480    92807267.060 7      3636.209
R11  22959025.564   122686091.214 6     11537.041    22959025.752   122686091.196 6     11537.041    22959038.634    95422554.151 6      8973.254    22959039.020    95422560.163 6      8973.254
G18  22594262.141   118733651.774 7     10473.410    22594262.145   118733651.777 6     10473.410    22594270.098    92519733.399 6      8161.099    22594271.000    92519767.395 8      8161.099
G31  22955801.223   120633543.514 7      8905.982    22955801.239   120633543.510 6      8905.982    22955807.541    94000164.559 6      6939.727    22955808.540    94000191.573 7      6939.727
G20  23325454.343   122576082.865 7      7125.714    23325453.332   122576082.864 5      7125.714    23325462.213    95513862.576 5      5552.504
R21  22541714.484   120625284.632 7     10932.515    22541715.263   120625284.654 8     10932.515    22541728.558    93819721.951 8      8503.067    22541728.340    93819725.948 8      8503.067
> 2024 05 02 08 36 15.0000000  0 14
G05  23158494.793   121698718.519 7      9262.388    23158491.736   121698718.522 7      9262.388    23158503.326    94830210.648 7      7217.445    23158504.740    94830217.657 7      7217.445
R19  22000454.734   117687573.194 6      3922.230    22000454.252   117687573.197 6      3922.230    22000465.668    91534816.432 7      3050.623    22000466.220    91534816.436 7      3050.623
G25  20537271.915   107924077.168 8      5909.572    20537271.280   107924077.163 8      5909.572    20537280.224    84096679.850 8      4604.862    20537281.400    84096718.858 8      4604.862
R20  19404702.357   103765662.028 7      7717.187    19404702.150   103765662.021 6      7717.187    19404713.984    80706669.374 7      6002.257    19404714.580    80706672.375 7      6002.257
G29  20755134.735   109068956.472 8      7428.600    20755132.568   109068956.468 8      7428.600    20755138.249    84988795.473 8      5788.519    20755140.620    84988819.474 8      5788.519
R09  19962347.228   106597803.411 8      5159.033    19962347.202   106597803.391 8      5159.033    19962357.254    82909437.257 8      4012.581    19962356.900    82909437.255 8      4012.581
R10  19500195.455   103947002.109 8      8620.576    19500195.347   103947002.085 8      8620.576
G28  21865401.899   114903450.123 8      7138.089    21865402.143   114903450.121 6      7138.089    21865408.285    89535156.041 6      5562.148    21865408.900    89535182.046 8      5562.148
G12  22660040.223   119079291.699 7      4665.614    22660039.935   119079291.698 7      4665.614    22660046.371    92789052.402 7      3635.543    22660048.560    92789087.411 7      3635.543
R11  22948230.430   122628406.078 6     11537.010    22948230.788   122628406.077 6     11537.010    22948243.643    95377687.950 6      8973.230    22948244.240    95377693.960 7      8973.230
G18  22584297.622   118681287.293 7     10472.370    22584297.438   118681287.294 6     10472.370    22584305.659    92478929.914 6      8160.288    22584306.240    92478963.913 8      8160.288
G31  22947328.596   120589019.094 7      8903.647    22947328.397   120589019.093 6      8903.647    22947334.284    93965470.208 6      6937.907    22947335.480    93965497.220 7      6937.907
G20  23318675.842   122540460.030 7      7123.373    23318674.200   122540460.032 5      7123.373    23318683.364    95486104.534 5      5550.680
R21  22531500.513   120570624.744 8     10931.282    22531501.443   120570624.770 8     10931.282    22531514.115    93777208.725 8      8502.108    22531513.920    93777212.723 8      8502.108
> 2024 05 02 08 36 20.0000000  0 14
G05  23149682.341   121652410.862 7      9260.737    23149679.771   121652410.862 7      9260.737    23149690.905    94794126.779 7      7216.159    23149692.300    94794133.787 7      7216.159
R19  21996788.367   117667962.435 6      3922.167    21996788.126   117667962.459 6      3922.167    21996800.314    91519563.603 7      3050.574    21996800.360    91519563.607 7      3050.574
G25  20531649.948   107894533.336 8      5908.072    20531649.319   107894533.332 8      5908.072    20531658.244    84073658.676 8      4603.693    20531659.540    84073697.681 8      4603.693
R20  19397487.678   103727082.773 7      7714.486    19397487.766   103727082.781 7      7714.486    19397499.312    80676663.300 7      6000.156    19397500.020    80676666.297 7      6000.156
G29  20748066.940   109031815.787 8      7427.867    20748064.852   109031815.786 8      7427.867    20748070.572    84959854.679 8      5787.948    20748073.060    84959878.682 8      5787.948
R09  19957517.860   106572014.934 8      5156.516    19957517.850   106572014.914 8      5156.516    19957528.046    82889379.536 8      4010.624    19957527.740    82889379.531 8      4010.624
R10  19492110.959   103903906.712 8      8617.667    19492110.838   103903906.698 8      8617.667
G28  21858611.692   114867766.407 7      7135.611    21858611.846   114867766.408 6      7135.611    21858618.090    89507350.540 6      5560.217    21858618.600    89507376.549 8      5560.217
G12  22655601.528   119055965.707 7      4664.950    22655601.078   119055965.708 7      4664.950    22655607.684    92770876.304 7      3635.026    22655610.220    92770911.310 7      3635.026
R11  22937435.961   122570721.597 6     11537.021    22937437.013   122570721.593 6     11537.021    22937448.844    95332822.250 6      8973.239    22937449.520    95332828.265 7      8973.239
G18  22574334.005   118628928.304 7     10471.496    22574333.767   118628928.296 6     10471.496    22574342.290    92438130.706 6      8159.607    22574342.940    92438164.702 8      8159.607
G31  22938858.139   120544506.509 7      8901.543    22938857.891   120544506.509 6      8901.543    22938863.351    93930785.069 6      6936.267    22938864.720    93930812.077 7      6936.267
G20  23311899.011   122504849.216 7      7121.091    23311897.719   122504849.226 5      7121.091    23311907.336    95458355.858 5      5548.902
R21  22521286.923   120515971.037 8     10930.294    22521288.123   120515971.056 8     10930.294    22521300.771    93734700.306 8      8501.339    22521300.640    93734704.307 8      8501.339
> 2024 05 02 08 36 25.0000000  0 14
G05  23140871.974   121606111.763 7      9258.859    23140869.156   121606111.758 7      9258.859    23140880.644    94758049.564 7      7214.696    23140882.140    94758056.574 7      7214.696
R19  21993122.991   117648352.481 6      3921.731    21993122.497   117648352.492 6      3921.731    21993134.241    91504311.373 7      3050.235    21993134.700    91504311.372 7      3050.235
G25  20526029.382   107864997.668 8      5906.199    20526028.763   107864997.663 8      5906.199    20526037.673    84050643.862 8      4602.233    20526039.160    84050682.863 8      4602.233
R20  19390275.685   103688517.495 7      7711.554    19390276.005   103688517.494 6      7711.554    19390287.489    80646668.075 7      5997.875    19390288.180    80646671.076 7      5997.875
G29  20741000.125   108994679.303 8      7426.739    20740998.152   108994679.301 8      7426.739    20741003.718    84930917.155 8      5787.069    20741006.180    84930941.156 8      5787.069
R09  19952691.169   106546239.984 9      5153.523    19952690.907   106546239.967 8      5153.523    19952701.114    82869332.340 8      4008.296    19952700.720    82869332.331 8      4008.296
R10  19484029.522   103860826.402 8      8614.452    19484028.952   103860826.386 8      8614.452
G28  21851823.778   114832095.729 7      7132.702    21851824.140   114832095.727 6      7132.702    21851830.447    89479555.199 6      5557.949    21851830.780    89479581.206 8      5557.949
G12  22651163.534   119032643.719 7      4663.942    22651162.944   119032643.721 7      4663.942    22651169.685    92752703.308 7      3634.241    22651172.400    92752738.309 7      3634.241
R11  22926640.916   122513037.257 6     11536.711    22926640.953   122513037.244 6     11536.711    22926654.386    95287956.659 6      8972.997    22926654.000    95287962.668 6      8972.997
G18  22564371.163   118576574.283 8     10470.245    22564371.237   118576574.278 6     10470.245    22564379.490    92397335.379 6      8158.633    22564379.800    92397369.382 8      8158.633
G31  22930389.913   120500005.295 7      8899.007    22930389.873   120500005.293 6      8899.007    22930395.630    93896108.807 6      6934.291    22930396.800    93896135.807 7      6934.291
G20  23305124.625   122469249.981 7      7118.572    23305123.306   122469249.987 5      7118.572    23305133.241    95430616.205 5      5546.939
R21  22511074.785   120461323.009 8     10928.878    22511075.328   120461323.026 8     10928.878    22511088.374    93692196.306 8      8500.238    22511087.900    93692200.309 8      8500.238
> 2024 05 02 08 36 30.0000000  0 14
G05  23132063.209   121559821.774 7      9257.096    23132060.482   121559821.777 7      9257.096    23132071.831    94721979.462 7      7213.321    23132073.540    94721986.469 7      7213.321
R19  21989457.349   117628743.864 6      3921.626    21989456.437   117628743.871 6      3921.626    21989468.476    91489060.198 7      3050.153    21989468.900    91489060.199 7      3050.153
G25  20520410.707   107835470.692 8      5904.505    20520409.926   107835470.685 8      5904.505    20520418.928    84027635.817 8      4600.913    20520420.540    84027674.821 8      4600.913
R20  19383065.918   103649966.826 7      7708.751    19383066.570   103649966.828 6      7708.751    19383078.287    80616684.221 7      5995.696    19383079.080    80616687.225 7      5995.696
G29  20733934.029   108957547.569 8      7425.880    20733932.124   108957547.571 8      7425.880    20733937.613    84901983.335 8      5786.400    20733940.280    84902007.339 8      5786.400
R09  19947866.833   106520479.189 9      5150.730    19947866.789   106520479.171 8      5150.730    19947876.882    82849296.146 8      4006.123    19947876.720    82849296.142 8      4006.123
R10  19475950.699   103817761.428 8      8611.431    19475950.138   103817761.409 8      8611.431
G28  21845038.583   114796438.608 8      7130.034    21845038.286   114796438.608 6      7130.034    21845044.712    89451770.419 6      5555.871    21845045.540    89451796.427 8      5555.871
G12  22646726.030   119009326.304 7      4663.075    22646725.607   119009326.298 7      4663.075    22646732.574    92734533.873 7      3633.565    22646735.320    92734568.872 7      3633.565
R11  22915846.532   122455353.655 6     11536.516    22915846.592   122455353.639 6     11536.516    22915859.323    95243091.660 6      8972.846    22915859.160    95243097.658 7      8972.846
G18  22554409.753   118524225.821 7     10469.144    22554409.850   118524225.820 6     10469.144    22554417.598    92356544.386 6      8157.774    22554418.380    92356578.389 8      8157.774
G31  22921923.696   120455515.988 7      8896.599    22921923.436   120455515.991 6      8896.599    22921929.514    93861441.818 6      6932.415    22921930.780    93861468.819 7      6932.415
G20  23298352.635   122433662.842 7      7116.313    23298351.301   122433662.840 5      7116.313    23298360.725    95402885.949 5      5545.179
R21  22500863.313   120406681.203 8     10927.758    22500863.969   120406681.214 8     10927.758    22500877.105    93649697.146 8      8499.368    22500876.640    93649701.154 8      8499.368
> 2024 05 02 08 36 35.0000000  0 14
G05  23123256.286   121513540.821 7      9255.166    23123253.291   121513540.822 7      9255.166    23123265.019    94685916.391 7      7211.818    23123266.620    94685923.387 7      7211.818
R19  21985792.128   117609136.579 6      3921.245    21985791.376   117609136.607 6      3921.245    21985803.304    91473810.080 7      3049.857    21985803.620    91473810.080 7      3049.857
G25  20514793.449   107805952.356 8      5902.738    20514792.746   107805952.354 8      5902.738    20514801.807    84004634.508 8      4599.536    20514803.260    84004673.512 8      4599.536
R20  19375859.700   103611430.752 7      7705.714    19375860.206   103611430.760 6      7705.714    19375872.015    80586711.721 7      5993.333    19375872.820    80586714.725 7      5993.333
G29  20726869.159   108920420.576 8      7424.924    20726867.112   108920420.575 8      7424.924    20726872.631    84873053.204 8      5785.655    20726875.320    84873077.210 8      5785.655
R09  19943045.385   106494732.487 8      5147.859    19943045.329   106494732.465 8      5147.859    19943055.622    82829270.916 8      4003.890    19943055.300    82829270.915 8      4003.890
R10  19467874.455   103774711.729 8      8608.407    19467874.132   103774711.711 8      8608.407
G28  21838255.534   114760795.010 7      7127.301    21838255.375   114760795.010 6      7127.301    21838262.125    89423996.174 6      5553.741    21838262.700    89424022.181 8      5553.741
G12  22642289.904   118986013.412 7      4662.102    22642289.441   118986013.415 7      4662.102    22642296.145    92716367.955 7      3632.807    22642298.860    92716402.957 7      3632.807
R11  22905051.341   122397670.639 6     11536.354    22905051.732   122397670.624 6     11536.354    22905065.323    95198227.112 6      8972.720    22905064.720    95198233.115 7      8972.720
G18  22544448.850   118471882.882 7     10467.967    22544448.980   118471882.882 6     10467.967    22544457.120    92315757.695 6      8156.857    22544457.820    92315791.696 8      8156.857
G31  22913460.014   120411038.578 7      8894.122    22913459.880   120411038.579 6      8894.122    22913465.777    93826784.090 6      6930.485    22913466.840    93826811.089 7      6930.485
G20  23291583.173   122398087.763 7      7113.864    23291581.338   122398087.763 5      7113.864    23291590.783    95375165.098 5      5543.271
R21  22490653.400   120352045.626 8     10926.462    22490654.271   120352045.636 8     10926.462    22490667.035    93607202.822 8      8498.359    22490666.580    93607206.827 7      8498.359
> 2024 05 02 08 36 40.0000000  0 14
G05  23114450.959   121467268.935 7      9253.462    23114448.181   121467268.934 7      9253.462    23114459.709    94649860.386 7      7210.490    23114460.680    94649867.368 7      7210.490
R19  21982127.185   117589530.638 6      3920.908    21982126.506   117589530.660 6      3920.908    21982137.676    91458560.987 7      3049.595    21982138.440    91458560.989 7      3049.595
G25  20509177.781   107776442.719 8      5900.992    20509177.348   107776442.716 8      5900.992    20509186.329    83981639.975 8      4598.175    20509187.980    83981678.978 8      4598.175
R20  19368656.407   103572909.186 7      7702.772    19368656.434   103572909.191 6      7702.772    19368668.124    80556750.499 7      5991.045    19368668.820    80556753.501 7      5991.045
G29  20719805.187   108883298.314 8      7424.004    20719803.007   108883298.312 8      7424.004    20719808.452    84844126.760 8      5784.938    20719810.820    84844150.767 8      5784.938
R09  19938226.432   106468999.766 8      5145.171    19938226.265   106468999.747 8      5145.171    19938236.717    82809256.567 8      4001.799    19938236.520    82809256.568 8      4001.799
R10  19459801.188   103731677.801 8      8605.241    19459800.854   103731677.782 8      8605.241
G28  21831475.427   114725164.953 7      7124.644    21831475.503   114725164.955 6      7124.644    21831481.845    89396232.490 6      5551.671    21831482.520    89396258.483 8      5551.671
G12  22637854.402   118962705.054 7      4661.376    22637854.005   118962705.052 7      4661.376    22637860.558    92698205.575 7      3632.241    22637863.520    92698240.580 7      3632.241
R11  22894256.760   122339988.389 7     11536.340    22894258.170   122339988.381 6     11536.340    22894270.071    95153363.163 6      8972.709    22894270.140    95153369.159 7      8972.709
G18  22534489.573   118419545.491 7     10466.885    22534489.406   118419545.487 6     10466.885    22534497.867    92274975.324 6      8156.014    22534498.580    92275009.323 8      8156.014
G31  22904998.290   120366573.070 7      8891.714    22904997.883   120366573.064 6      8891.714    22905004.232    93792135.656 6      6928.608    22905005.740    93792162.655 7      6928.608
G20  23284815.503   122362524.802 7      7111.346    23284814.921   122362524.792 5      7111.346    23284823.585    95347453.714 5      5541.309
R21  22480444.658   120297416.354 8     10925.245    22480444.923   120297416.366 8     10925.245    22480458.299    93564713.408 8      8497.413    22480457.440    93564717.406 7      8497.413
> 2024 05 02 08 36 45.0000000  0 14
G05  23105647.549   121421005.991 7      9251.569    23105644.598   121421005.991 7      9251.569    23105655.891    94613811.345 7      7209.015    23105657.140    94613818.331 7      7209.015
R19  21978462.325   117569925.748 6      3920.758    21978461.274   117569925.755 6      3920.758    21978473.250    91443312.700 7      3049.479    21978473.800    91443312.705 7      3049.479
G25  20503564.351   107746941.596 8      5899.288    20503563.516   107746941.586 8      5899.288    20503572.543    83958652.075 8      4596.848    20503574.140    83958691.078 8      4596.848
R20  19361455.652   103534401.909 7      7699.920    19361455.735   103534401.912 6      7699.920    19361467.095    80526800.392 7      5988.827    19361467.940    80526803.393 7      5988.827
G29  20712741.954   108846180.662 8      7423.042    20712739.827   108846180.662 8      7423.042    20712745.245    84815203.914 8      5784.189    20712747.760    84815227.918 8      5784.189
R09  19933410.426   106443281.106 8      5142.303    19933409.854   106443281.091 8      5142.303    19933420.449    82789253.148 8      3999.569    19933420.160    82789253.151 8      3999.569
R10  19451731.117   103688659.184 8      8602.141    19451730.817   103688659.161 8      8602.141
G28  21824697.836   114689548.315 8      7121.921    21824697.824   114689548.316 6      7121.921    21824703.951    89368479.250 6      5549.549    21824704.920    89368505.246 8      5549.549
G12  22633419.829   118939401.123 7      4660.385    22633419.530   118939401.120 7      4660.385    22633426.251    92680046.649 7      3631.469    22633428.840    92680081.650 7      3631.469
R11  22883462.322   122282306.818 7     11536.255    22883463.062   122282306.812 6     11536.255    22883476.223    95108499.718 7      8972.643    22883475.800    95108505.712 7      8972.643
G18  22524531.282   118367213.527 7     10465.745    22524531.345   118367213.524 6     10465.745    22524538.991    92234197.182 6      8155.126    22524540.020    92234231.186 8      8155.126
G31  22896539.081   120322119.321 7      8889.529    22896538.971   120322119.323 6      8889.529    22896545.425    93757496.367 6      6926.906    22896546.260    93757523.371 7      6926.906
G20  23278050.561   122326973.789 7      7109.016    23278049.936   122326973.797 5      7109.016    23278058.420    95319751.626 5      5539.493
R21  22470236.747   120242793.210 8     10923.824    22470237.496   120242793.229 8     10923.824    22470250.577    93522228.757 8      8496.307    22470249.880    93522232.752 7      8496.307
> 2024 05 02 08 36 50.0000000  0 14
G05  23096845.877   121374752.323 7      9249.839    23096842.940   121374752.323 7      9249.839    23096854.019    94577769.539 7      7207.667    23096855.320    94577776.530 7      7207.667
R19  21974797.240   117550322.238 6      3920.775    21974797.582   117550322.241 6      3920.775    21974809.024    91428065.499 7      3049.492    21974809.500    91428065.505 7      3049.492
G25  20497951.776   107717449.319 8      5897.674    20497951.368   107717449.314 8      5897.674    20497960.338    83935671.068 8      4595.590    20497961.760    83935710.072 8      4595.590
R20  19354257.582   103495909.291 7      7697.260    19354257.548   103495909.302 7      7697.260    19354268.866    80496861.694 7      5986.758    19354269.560    80496864.695 7      5986.758
G29  20705679.663   108809067.931 8      7422.196    20705677.567   108809067.929 8      7422.196    20705682.957    84786284.892 8      5783.529    20705685.560    84786308.898 8      5783.529
R09  19928596.665   106417576.619 8      5139.594    19928596.429   106417576.600 8      5139.594    19928606.785    82769260.750 8      3997.462    19928606.520    82769260.752 8      3997.462
R10  19443663.643   103645656.113 8      8599.178    19443663.673   103645656.090 8      8599.178
G28  21817922.649   114653945.399 7      7119.286    21817922.771   114653945.399 6      7119.286    21817929.043    89340736.712 6      5547.495    21817929.800    89340762.706 8      5547.495
G12  22628986.242   118916101.896 7      4659.445    22628986.070   118916101.894 7      4659.445    22628992.542    92661891.382 7      3630.737    22628995.260    92661926.380 7      3630.737
R11  22872668.574   122224626.258 7     11536.094    22872668.629   122224626.249 6     11536.094    22872682.140    95063637.075 7      8972.518    22872682.060    95063643.070 7      8972.518
G18  22514573.806   118314887.293 7     10464.865    22514574.245   118314887.291 6     10464.865    22514581.939    92193423.507 6      8154.440    22514582.520    92193457.509 8      8154.440
G31  22888081.978   120277677.710 7      8887.207    22888082.076   120277677.707 6      8887.207    22888088.449    93722866.534 6      6925.096    22888089.700    93722893.540 7      6925.096
G20  23271287.722   122291435.069 7      7106.671    23271286.527   122291435.070 5      7106.671    23271295.233    95292059.104 5      5537.666
R21  22460030.536   120188176.464 8     10922.779    22460031.276   120188176.483 8     10922.779    22460044.036    93479749.074 8      8495.495    22460043.820    93479753.073 8      8495.495
> 2024 05 02 08 36 55.0000000  0 14
G05  23088045.511   121328507.598 7      9247.892    23088042.839   121328507.598 7      9247.892    23088054.268    94541734.703 7      7206.149    23088054.760    94541741.698 7      7206.149
R19  21971133.065   117530719.718 6      3920.324    21971132.508   117530719.725 6      3920.324    21971144.643    91412819.074 7      3049.141    21971145.000    91412819.075 7      3049.141
G25  20492341.438   107687965.606 8      5895.839    20492340.758   107687965.600 8      5895.839    20492349.755    83912696.737 8      4594.160    20492351.200    83912735.742 8      4594.160
R20  19347062.056   103457431.048 7      7694.188    19347061.617   103457431.060 6      7694.188    19347073.465    80466934.172 7      5984.368    19347073.980    80466937.168 7      5984.368
G29  20698618.025   108771959.814 8      7421.064    20698616.223   108771959.814 8      7421.064    20698621.660    84757369.477 8      5782.647    20698624.120    84757393.482 8      5782.647
R09  19923785.712   106391885.974 8      5136.581    19923785.233   106391885.959 8      5136.581    19923795.800    82749279.125 8      3995.118    19923795.400    82749279.122 8      3995.118
R10  19435599.268   103602668.370 8      8595.887    19435599.116   103602668.352 8      8595.887
G28  21811150.301   114618355.891 7      7116.450    21811150.282   114618355.890 6      7116.450    21811156.658    89313004.611 6      5545.285    21811157.380    89313030.609 8      5545.285
G12  22624553.684   118892807.063 7      4658.443    22624553.315   118892807.060 7      4658.443    22624559.533    92643739.535 7      3629.956    22624562.080    92643774.541 7      3629.956
R11  22861874.887   122166946.384 7     11535.911    22861874.378   122166946.374 7     11535.911    22861887.165    95018774.983 6      8972.375    22861887.180    95018780.981 7      8972.375
G18  22504617.470   118262566.529 7     10463.596    22504617.479   118262566.521 6     10463.596    22504625.540    92152654.091 6      8153.451    22504626.420    92152688.094 8      8153.451
G31  22879627.503   120233247.887 7      8884.780    22879627.059   120233247.884 5      8884.780    22879633.527    93688245.898 5      6923.205    22879634.860    93688272.903 7      6923.205
G20  23264527.278   122255908.308 7      7104.083    23264526.110   122255908.308 5      7104.083    23264535.036    95264375.916 5      5535.649
R21  22449825.154   120133565.919 8     10921.359    22449826.234   120133565.946 8     10921.359    22449838.823    93437274.229 8      8494.390    22449838.540    93437278.228 7      8494.390
> 2024 05 02 08 37  0.0000000  0 14
G05  23079247.197   121282271.817 7      9246.249    23079244.677   121282271.819 7      9246.249    23079255.653    94505706.837 7      7204.869    23079256.440    94505713.837 7      7204.869
R19  21967468.132   117511118.273 6      3920.212    21967468.436   117511118.280 6      3920.212    21967480.589    91397573.473 7      3049.054    21967481.080    91397573.475 7      3049.054
G25  20486732.499   107658490.323 8      5894.200    20486731.909   107658490.319 8      5894.200    20486740.852    83889728.977 8      4592.883    20486742.180    83889767.982 8      4592.883
R20  19339869.523   103418967.033 7      7691.337    19339868.857   103418967.034 6      7691.337    19339880.447    80437017.704 7      5982.151    19339881.240    80437020.702 7      5982.151
G29  20691557.431   108734856.182 8      7420.273    20691555.902   108734856.184 8      7420.273    20691561.050    84728457.550 8      5782.031    20691563.800    84728481.554 8      5782.031
R09  19918977.245   106366209.139 8      5134.018    19918976.660   106366209.123 8      5134.018    19918987.385    82729308.233 8      3993.125    19918986.900    82729308.229 8      3993.125
R10  19427537.725   103559696.090 8      8592.978    19427537.482   103559696.072 8      8592.978
G28  21804380.359   114582779.695 8      7113.827    21804380.441   114582779.697 6      7113.827    21804386.715    89285282.893 6      5543.242    21804387.480    89285308.891 8      5543.242
G12  22620121.549   118869516.500 8      4657.739    22620121.378   118869516.496 7      4657.739    22620127.610    92625591.028 7      3629.407    22620130.260    92625626.039 7      3629.407
R11  22851080.975   122109267.073 7     11535.751    22851080.490   122109267.063 7     11535.751    22851093.894    94973913.300 6      8972.250    22851093.260    94973919.295 7      8972.250
G18  22494662.101   118210251.145 7     10462.467    22494662.082   118210251.140 6     10462.467    22494670.480    92111888.865 6      8152.572    22494671.240    92111922.864 8      8152.572
G31  22871174.761   120188829.778 7      8882.454    22871174.360   120188829.777 6      8882.454    22871181.458    93653634.390 6      6921.393    22871183.080    93653661.390 7      6921.393
G20  23257768.816   122220393.396 7      7101.876    23257767.402   122220393.400 5      7101.876    23257776.609    95236701.953 5      5533.929
R21  22439621.393   120078961.389 8     10920.301    22439622.425   120078961.409 8     10920.301    22439634.350    93394804.040 8      8493.568    22439634.120    93394808.040 7      8493.568
> 2024 05 02 08 37  5.0000000  0 14
G05  23070450.631   121236044.893 7      9244.490    23070447.882   121236044.903 7      9244.490    23070459.122    94469685.871 7      7203.499    23070460.380    94469692.879 7      7203.499
R19  21963804.608   117491517.655 6      3920.093    21963803.792   117491517.662 6      3920.093    21963816.210    91382328.504 7      3048.961    21963816.500    91382328.507 7      3048.961
G25  20481125.304   107629023.455 8      5892.536    20481124.566   107629023.452 8      5892.536    20481133.394    83866767.770 8      4591.586    20481134.860    83866806.774 8      4591.586
R20  19332678.746   103380517.261 7      7688.498    19332678.263   103380517.273 7      7688.498    19332690.145    80407112.332 7      5979.943    19332690.680    80407115.331 7      5979.943
G29  20684497.761   108697757.036 8      7419.416    20684495.996   108697757.035 8      7419.416    20684501.195    84699549.118 8      5781.363    20684504.040    84699573.118 8      5781.363
R09  19914171.279   106340546.174 8      5131.263    19914170.850   106340546.158 8      5131.263    19914181.630    82709348.131 8      3990.982    19914181.180    82709348.130 8      3990.982
R10  19419478.779   103516738.997 8      8589.905    19419478.864   103516738.982 8      8589.905
G28  21797613.012   114547216.757 7      7111.305    21797613.155   114547216.759 6      7111.305    21797619.231    89257571.503 6      5541.277    21797620.100    89257597.505 8      5541.277
G12  22615690.437   118846230.220 8      4656.835    22615690.108   118846230.215 7      4656.835    22615696.574    92607445.846 7      3628.703    22615699.280    92607480.854 7      3628.703
R11  22840287.166   122051588.290 7     11535.699    22840287.079   122051588.286 7     11535.699    22840299.969    94929052.051 7      8972.210    22840299.940    94929058.048 7      8972.210
G18  22484707.938   118157941.085 7     10461.517    22484707.816   118157941.078 6     10461.517    22484716.100    92071127.782 6      8151.831    22484717.220    92071161.780 8      8151.831
G31  22862724.775   120144423.353 7      8880.172    22862724.532   120144423.363 6      8880.172    22862730.230    93619031.986 5      6919.614    22862732.000    93619058.988 7      6919.614
G20  23251012.974   122184890.364 7      7099.409    23251011.680   122184890.369 5      7099.409    23251020.686    95209037.248 5      5532.007
R21  22429418.333   120024362.941 8     10919.098    22429419.760   120024362.959 8     10919.098    22429431.396    93352338.602 8      8492.632    22429431.060    93352342.604 7      8492.632
